{
"type": "FeatureCollection",
"name": "health_centres",
"crs": { "type": "name", "properties": { "name": "urn:ogc:def:crs:OGC:1.3:CRS84" } },
"features": [
{ "type": "Feature", "properties": { "TYPE": "Health Centre", "NAME": "Limbe ADMARC", "DISTRICT": "Blantyre", "ROAD_ACCES": "Earth Fair" }, "geometry": { "type": "Point", "coordinates": [ 35.05508, -15.81231 ] } },
{ "type": "Feature", "properties": { "TYPE": "Clinic", "NAME": "Malangalanga", "DISTRICT": "Lilongwe", "ROAD_ACCES": "Tarmac" }, "geometry": { "type": "Point", "coordinates": [ 33.77167, -14.00153 ] } },
{ "type": "Feature", "properties": { "TYPE": "Dispensary", "NAME": "Salima Admarc", "DISTRICT": "Salima", "ROAD_ACCES": "Tarmac" }, "geometry": { "type": "Point", "coordinates": [ 34.4645, -13.78353 ] } },
{ "type": "Feature", "properties": { "TYPE": "Clinic", "NAME": "Area 25 BLM", "DISTRICT": "Lilongwe", "ROAD_ACCES": "Earth Fair" }, "geometry": { "type": "Point", "coordinates": [ 33.76208, -13.89475 ] } },
{ "type": "Feature", "properties": { "TYPE": "Clinic", "NAME": "Balaka BLM", "DISTRICT": "Balaka", "ROAD_ACCES": "Tarmac" }, "geometry": { "type": "Point", "coordinates": [ 34.95542, -14.98875 ] } },
{ "type": "Feature", "properties": { "TYPE": "Clinic", "NAME": "Bvumbwe BLM", "DISTRICT": "Thyolo", "ROAD_ACCES": "Tarmac" }, "geometry": { "type": "Point", "coordinates": [ 35.08353, -15.93111 ] } },
{ "type": "Feature", "properties": { "TYPE": "Clinic", "NAME": "Dedza BLM", "DISTRICT": "Dedza", "ROAD_ACCES": "Tarmac" }, "geometry": { "type": "Point", "coordinates": [ 34.33, -14.37625 ] } },
{ "type": "Feature", "properties": { "TYPE": "Clinic", "NAME": "Dowa BLM", "DISTRICT": "Dowa", "ROAD_ACCES": "Tarmac" }, "geometry": { "type": "Point", "coordinates": [ 33.73808, -13.53194 ] } },
{ "type": "Feature", "properties": { "TYPE": "Clinic", "NAME": "Dwangwa BLM", "DISTRICT": "Nkhotakota", "ROAD_ACCES": "Tarmac" }, "geometry": { "type": "Point", "coordinates": [ 34.11208, -12.50967 ] } },
{ "type": "Feature", "properties": { "TYPE": "Clinic", "NAME": "Falls BLM", "DISTRICT": "Lilongwe", "ROAD_ACCES": "Tarmac" }, "geometry": { "type": "Point", "coordinates": [ 33.77908, -13.99694 ] } },
{ "type": "Feature", "properties": { "TYPE": "Clinic", "NAME": "Karonga BLM", "DISTRICT": "Karonga", "ROAD_ACCES": "Tarmac" }, "geometry": { "type": "Point", "coordinates": [ 33.92417, -9.94056 ] } },
{ "type": "Feature", "properties": { "TYPE": "Clinic", "NAME": "Kasungu BLM", "DISTRICT": "Kasungu", "ROAD_ACCES": "Tarmac" }, "geometry": { "type": "Point", "coordinates": [ 33.481, -13.04317 ] } },
{ "type": "Feature", "properties": { "TYPE": "Clinic", "NAME": "Kawale BLM", "DISTRICT": "Lilongwe", "ROAD_ACCES": "Tarmac" }, "geometry": { "type": "Point", "coordinates": [ 33.79522, -13.99164 ] } },
{ "type": "Feature", "properties": { "TYPE": "Health Centre", "NAME": "Liwonde BLM", "DISTRICT": "Machinga", "ROAD_ACCES": "Tarmac" }, "geometry": { "type": "Point", "coordinates": [ 35.22872, -15.06969 ] } },
{ "type": "Feature", "properties": { "TYPE": "Clinic", "NAME": "Lunzu BLM", "DISTRICT": "Blantyre", "ROAD_ACCES": "Tarmac" }, "geometry": { "type": "Point", "coordinates": [ 35.02031, -15.65119 ] } },
{ "type": "Feature", "properties": { "TYPE": "Clinic", "NAME": "Mangochi BLM", "DISTRICT": "Mangochi", "ROAD_ACCES": "Gravel" }, "geometry": { "type": "Point", "coordinates": [ 35.26158, -14.48183 ] } },
{ "type": "Feature", "properties": { "TYPE": "Clinic", "NAME": "Mchinji BLM", "DISTRICT": "Mchinji", "ROAD_ACCES": "Tarmac" }, "geometry": { "type": "Point", "coordinates": [ 32.89225, -13.79494 ] } },
{ "type": "Feature", "properties": { "TYPE": "Clinic", "NAME": "Midima BLM", "DISTRICT": "Blantyre", "ROAD_ACCES": "tarmac" }, "geometry": { "type": "Point", "coordinates": [ 35.08036, -15.83117 ] } },
{ "type": "Feature", "properties": { "TYPE": "Clinic", "NAME": "Mulanje BLM", "DISTRICT": "Mulanje", "ROAD_ACCES": "Gravel" }, "geometry": { "type": "Point", "coordinates": [ 35.49053, -16.01136 ] } },
{ "type": "Feature", "properties": { "TYPE": "Clinic", "NAME": "Mwanza BLM", "DISTRICT": "Mwanza", "ROAD_ACCES": "Tarmac" }, "geometry": { "type": "Point", "coordinates": [ 34.50911, -15.59761 ] } },
{ "type": "Feature", "properties": { "TYPE": "Clinic", "NAME": "Mzimba BLM", "DISTRICT": "Mzimba", "ROAD_ACCES": "Tarmac" }, "geometry": { "type": "Point", "coordinates": [ 33.59389, -11.89861 ] } },
{ "type": "Feature", "properties": { "TYPE": "Clinic", "NAME": "Mzuzu BLM", "DISTRICT": "Mzimba", "ROAD_ACCES": "Gravel" }, "geometry": { "type": "Point", "coordinates": [ 34.01639, -11.45608 ] } },
{ "type": "Feature", "properties": { "TYPE": "Clinic", "NAME": "Ndirande BLM", "DISTRICT": "Blantyre", "ROAD_ACCES": "Tarmac" }, "geometry": { "type": "Point", "coordinates": [ 35.03114, -15.77347 ] } },
{ "type": "Feature", "properties": { "TYPE": "Clinic", "NAME": "Ngabu BLM", "DISTRICT": "Chikwawa", "ROAD_ACCES": "Gravel" }, "geometry": { "type": "Point", "coordinates": [ 34.865, -16.44783 ] } },
{ "type": "Feature", "properties": { "TYPE": "Clinic", "NAME": "Nkhatabay BLM", "DISTRICT": "Nkhata Bay", "ROAD_ACCES": "Earth Fair" }, "geometry": { "type": "Point", "coordinates": [ 34.29892, -11.60903 ] } },
{ "type": "Feature", "properties": { "TYPE": "Clinic", "NAME": "Nkhotakota BLM", "DISTRICT": "Nkhotakota", "ROAD_ACCES": "Tarmac" }, "geometry": { "type": "Point", "coordinates": [ 34.28339, -12.92436 ] } },
{ "type": "Feature", "properties": { "TYPE": "Clinic", "NAME": "Ntcheu BLM", "DISTRICT": "Ntcheu", "ROAD_ACCES": "Tarmac" }, "geometry": { "type": "Point", "coordinates": [ 34.63439, -14.81467 ] } },
{ "type": "Feature", "properties": { "TYPE": "Clinic", "NAME": "Rumphi BLM", "DISTRICT": "Rumphi", "ROAD_ACCES": "Tarmac Good" }, "geometry": { "type": "Point", "coordinates": [ 33.85547, -11.0225 ] } },
{ "type": "Feature", "properties": { "TYPE": "Clinic", "NAME": "Salima BLM", "DISTRICT": "Salima", "ROAD_ACCES": "Tarmac" }, "geometry": { "type": "Point", "coordinates": [ 34.43792, -13.77042 ] } },
{ "type": "Feature", "properties": { "TYPE": "Clinic", "NAME": "Zingwangwa BLM", "DISTRICT": "Blantyre", "ROAD_ACCES": "Tarmac" }, "geometry": { "type": "Point", "coordinates": [ 35.01186, -15.8185 ] } },
{ "type": "Feature", "properties": { "TYPE": "Clinic", "NAME": "Zomba BLM", "DISTRICT": "Zomba", "ROAD_ACCES": "Earth Fair" }, "geometry": { "type": "Point", "coordinates": [ 35.31992, -15.38903 ] } },
{ "type": "Feature", "properties": { "TYPE": "Clinic", "NAME": "ABC Community", "DISTRICT": "Lilongwe", "ROAD_ACCES": "Tarmac" }, "geometry": { "type": "Point", "coordinates": [ 33.74136, -13.96839 ] } },
{ "type": "Feature", "properties": { "TYPE": "Clinic", "NAME": "Adventist health center Area", "DISTRICT": "Lilongwe", "ROAD_ACCES": "Tarmac" }, "geometry": { "type": "Point", "coordinates": [ 33.7785, -13.95317 ] } },
{ "type": "Feature", "properties": { "TYPE": "Clinic", "NAME": "Adventist Health Services", "DISTRICT": "Zomba", "ROAD_ACCES": "Gravel" }, "geometry": { "type": "Point", "coordinates": [ 35.32131, -15.38961 ] } },
{ "type": "Feature", "properties": { "TYPE": "Rehabilitation Centr", "NAME": "Alinafe Rehabilitation Centr", "DISTRICT": "Nkhotakota", "ROAD_ACCES": "Tarmac" }, "geometry": { "type": "Point", "coordinates": [ 34.24339, -13.38794 ] } },
{ "type": "Feature", "properties": { "TYPE": "Health Centre", "NAME": "Bembeke", "DISTRICT": "Dedza", "ROAD_ACCES": "Earth Poor" }, "geometry": { "type": "Point", "coordinates": [ 34.42453, -14.35831 ] } },
{ "type": "Feature", "properties": { "TYPE": "Health Centre", "NAME": "Chambo", "DISTRICT": "Chitipa", "ROAD_ACCES": "Earth Fair" }, "geometry": { "type": "Point", "coordinates": [ 33.39797, -9.94394 ] } },
{ "type": "Feature", "properties": { "TYPE": "Health Centre", "NAME": "Chididi", "DISTRICT": "Nkhotakota", "ROAD_ACCES": "Earth Fair" }, "geometry": { "type": "Point", "coordinates": [ 34.31483, -13.08578 ] } },
{ "type": "Feature", "properties": { "TYPE": "Health Centre", "NAME": "Chididi", "DISTRICT": "Nsanje", "ROAD_ACCES": "Gravel" }, "geometry": { "type": "Point", "coordinates": [ 35.17378, -16.915 ] } },
{ "type": "Feature", "properties": { "TYPE": "Health Centre", "NAME": "Chigodi", "DISTRICT": "Ntcheu", "ROAD_ACCES": "Earth Poor" }, "geometry": { "type": "Point", "coordinates": [ 34.54153, -14.492 ] } },
{ "type": "Feature", "properties": { "TYPE": "Health Centre", "NAME": "Chilambwe", "DISTRICT": "Nkhata Bay", "ROAD_ACCES": "Earth Poor" }, "geometry": { "type": "Point", "coordinates": [ 34.31631, -11.69117 ] } },
{ "type": "Feature", "properties": { "TYPE": "Health Centre", "NAME": "Chileka SDA", "DISTRICT": "Blantyre", "ROAD_ACCES": "Gravel" }, "geometry": { "type": "Point", "coordinates": [ 34.92892, -15.65989 ] } },
{ "type": "Feature", "properties": { "TYPE": "Health Centre", "NAME": "Chilipa", "DISTRICT": "Mangochi", "ROAD_ACCES": "Earth Fair" }, "geometry": { "type": "Point", "coordinates": [ 34.97408, -14.70303 ] } },
{ "type": "Feature", "properties": { "TYPE": "Health Centre", "NAME": "Chilipa", "DISTRICT": "Zomba", "ROAD_ACCES": "Gravel" }, "geometry": { "type": "Point", "coordinates": [ 35.11692, -15.3245 ] } },
{ "type": "Feature", "properties": { "TYPE": "Clinic", "NAME": "Chimwala", "DISTRICT": "Lilongwe", "ROAD_ACCES": "Tarmac" }, "geometry": { "type": "Point", "coordinates": [ 33.79367, -14.05114 ] } },
{ "type": "Feature", "properties": { "TYPE": "Health Centre", "NAME": "Chingazi", "DISTRICT": "Thyolo", "ROAD_ACCES": "Earth Fair" }, "geometry": { "type": "Point", "coordinates": [ 35.20586, -15.91834 ] } },
{ "type": "Feature", "properties": { "TYPE": "Health Centre", "NAME": "Chinthembwe", "DISTRICT": "Ntchisi", "ROAD_ACCES": "Earth Fair" }, "geometry": { "type": "Point", "coordinates": [ 33.90833, -13.42889 ] } },
{ "type": "Feature", "properties": { "TYPE": "Health Centre", "NAME": "Chipho", "DISTRICT": "Thyolo", "ROAD_ACCES": "Earth Fair" }, "geometry": { "type": "Point", "coordinates": [ 35.29356, -16.20474 ] } },
{ "type": "Feature", "properties": { "TYPE": "Health Centre", "NAME": "Chipini", "DISTRICT": "Zomba", "ROAD_ACCES": "Earth Fair" }, "geometry": { "type": "Point", "coordinates": [ 35.09522, -15.38981 ] } },
{ "type": "Feature", "properties": { "TYPE": "Health Centre", "NAME": "Chiringa Cham", "DISTRICT": "Phalombe", "ROAD_ACCES": "Earth Fair" }, "geometry": { "type": "Point", "coordinates": [ 35.76222, -15.76544 ] } },
{ "type": "Feature", "properties": { "TYPE": "Health Centre", "NAME": "Chitala", "DISTRICT": "Salima", "ROAD_ACCES": "Earth Fair" }, "geometry": { "type": "Point", "coordinates": [ 34.27158, -13.67178 ] } },
{ "type": "Feature", "properties": { "TYPE": "Health Centre", "NAME": "Chiwe", "DISTRICT": "Lilongwe", "ROAD_ACCES": "Earth Fair" }, "geometry": { "type": "Point", "coordinates": [ 33.39811, -13.90753 ] } },
{ "type": "Feature", "properties": { "TYPE": "Clinic", "NAME": "Comfort", "DISTRICT": "Balaka", "ROAD_ACCES": "Tarmac" }, "geometry": { "type": "Point", "coordinates": [ 34.95233, -15.003 ] } },
{ "type": "Feature", "properties": { "TYPE": "Health Centre", "NAME": "Dzenza", "DISTRICT": "Lilongwe", "ROAD_ACCES": "Earth Fair" }, "geometry": { "type": "Point", "coordinates": [ 33.74706, -13.87592 ] } },
{ "type": "Feature", "properties": { "TYPE": "Hospital", "NAME": "Ekwendeni", "DISTRICT": "Mzimba", "ROAD_ACCES": "Tarmac" }, "geometry": { "type": "Point", "coordinates": [ 33.88367, -11.37172 ] } },
{ "type": "Feature", "properties": { "TYPE": "Hospital", "NAME": "Embangweni", "DISTRICT": "Mzimba", "ROAD_ACCES": "Earth Poor" }, "geometry": { "type": "Point", "coordinates": [ 33.47606, -12.13686 ] } },
{ "type": "Feature", "properties": { "TYPE": "Health Centre", "NAME": "Enukweni", "DISTRICT": "Rumphi", "ROAD_ACCES": "Tarmac" }, "geometry": { "type": "Point", "coordinates": [ 33.88583, -11.18 ] } },
{ "type": "Feature", "properties": { "TYPE": "Maternity", "NAME": "Ganya", "DISTRICT": "Ntcheu", "ROAD_ACCES": "Earth Poor" }, "geometry": { "type": "Point", "coordinates": [ 34.61811, -14.60989 ] } },
{ "type": "Feature", "properties": { "TYPE": "Health Centre", "NAME": "Gawanani", "DISTRICT": "Machinga", "ROAD_ACCES": "Earth Poor" }, "geometry": { "type": "Point", "coordinates": [ 35.20311, -15.22381 ] } },
{ "type": "Feature", "properties": { "TYPE": "Health Centre", "NAME": "Gowa", "DISTRICT": "Ntcheu", "ROAD_ACCES": "Earth Poor" }, "geometry": { "type": "Point", "coordinates": [ 34.58992, -14.69897 ] } },
{ "type": "Feature", "properties": { "TYPE": "Health Centre", "NAME": "Guillime", "DISTRICT": "Mchinji", "ROAD_ACCES": "Earth Fair" }, "geometry": { "type": "Point", "coordinates": [ 33.07556, -13.89011 ] } },
{ "type": "Feature", "properties": { "TYPE": "Dispensary", "NAME": "H Parker Sharp", "DISTRICT": "Zomba", "ROAD_ACCES": "Gravel" }, "geometry": { "type": "Point", "coordinates": [ 35.36083, -15.29908 ] } },
{ "type": "Feature", "properties": { "TYPE": "Clinic", "NAME": "Halena Oakely (Mtambanyama)", "DISTRICT": "Thyolo", "ROAD_ACCES": "Tarmac" }, "geometry": { "type": "Point", "coordinates": [ 35.0845, -16.12669 ] } },
{ "type": "Feature", "properties": { "TYPE": "Health Centre", "NAME": "K.T.F.T", "DISTRICT": "Kasungu", "ROAD_ACCES": "Earth Fair" }, "geometry": { "type": "Point", "coordinates": [ 33.50431, -13.27933 ] } },
{ "type": "Feature", "properties": { "TYPE": "Health Centre", "NAME": "Kalemba", "DISTRICT": "Nsanje", "ROAD_ACCES": "Gravel" }, "geometry": { "type": "Point", "coordinates": [ 35.11175, -16.57539 ] } },
{ "type": "Feature", "properties": { "TYPE": "Health Centre", "NAME": "Kalikumbi", "DISTRICT": "Mzimba", "ROAD_ACCES": "Earth Poor" }, "geometry": { "type": "Point", "coordinates": [ 33.33369, -12.20403 ] } },
{ "type": "Feature", "properties": { "TYPE": "Health Centre", "NAME": "Kankao", "DISTRICT": "Balaka", "ROAD_ACCES": "Earth Fair" }, "geometry": { "type": "Point", "coordinates": [ 34.92269, -15.05433 ] } },
{ "type": "Feature", "properties": { "TYPE": "Health Centre", "NAME": "Kanyama", "DISTRICT": "Dedza", "ROAD_ACCES": "Earth Fair" }, "geometry": { "type": "Point", "coordinates": [ 34.32364, -14.23964 ] } },
{ "type": "Feature", "properties": { "TYPE": "Health Centre", "NAME": "Kaphatenga", "DISTRICT": "Salima", "ROAD_ACCES": "Tarmac" }, "geometry": { "type": "Point", "coordinates": [ 34.38356, -13.76269 ] } },
{ "type": "Feature", "properties": { "TYPE": "Health Centre", "NAME": "Kapire", "DISTRICT": "Mangochi", "ROAD_ACCES": "Earth Fair" }, "geometry": { "type": "Point", "coordinates": [ 34.98694, -14.74611 ] } },
{ "type": "Feature", "properties": { "TYPE": "Health Centre", "NAME": "Kapiri", "DISTRICT": "Nkhotakota", "ROAD_ACCES": "Tarmac" }, "geometry": { "type": "Point", "coordinates": [ 34.31144, -13.21619 ] } },
{ "type": "Feature", "properties": { "TYPE": "Health Centre", "NAME": "Kapiri Mission", "DISTRICT": "Mchinji", "ROAD_ACCES": "Earth Fair" }, "geometry": { "type": "Point", "coordinates": [ 33.17383, -13.56214 ] } },
{ "type": "Feature", "properties": { "TYPE": "Rural Hospital", "NAME": "Kaseye", "DISTRICT": "Chitipa", "ROAD_ACCES": "Earth Fair" }, "geometry": { "type": "Point", "coordinates": [ 33.37389, -9.66639 ] } },
{ "type": "Feature", "properties": { "TYPE": "Rural Hospital", "NAME": "Kasina", "DISTRICT": "Dedza", "ROAD_ACCES": "Earth Poor" }, "geometry": { "type": "Point", "coordinates": [ 34.13156, -14.14775 ] } },
{ "type": "Feature", "properties": { "TYPE": "Health Centre", "NAME": "Kasitu", "DISTRICT": "Nkhotakota", "ROAD_ACCES": "Tarmac" }, "geometry": { "type": "Point", "coordinates": [ 34.03403, -12.30911 ] } },
{ "type": "Feature", "properties": { "TYPE": "Health Centre", "NAME": "Katema", "DISTRICT": "Mangochi", "ROAD_ACCES": "Earth Fair" }, "geometry": { "type": "Point", "coordinates": [ 35.03608, -14.52361 ] } },
{ "type": "Feature", "properties": { "TYPE": "Rural Hospital", "NAME": "Katete", "DISTRICT": "Mzimba", "ROAD_ACCES": "Earth Fair" }, "geometry": { "type": "Point", "coordinates": [ 33.61419, -12.34611 ] } },
{ "type": "Feature", "properties": { "TYPE": "Health Centre", "NAME": "Kaundu", "DISTRICT": "Dedza", "ROAD_ACCES": "Earth Poor" }, "geometry": { "type": "Point", "coordinates": [ 34.62872, -14.29369 ] } },
{ "type": "Feature", "properties": { "TYPE": "Health Centre", "NAME": "Koche", "DISTRICT": "Mangochi", "ROAD_ACCES": "Earth Fair" }, "geometry": { "type": "Point", "coordinates": [ 35.14344, -14.33333 ] } },
{ "type": "Feature", "properties": { "TYPE": "Health Centre", "NAME": "Lake View", "DISTRICT": "Ntcheu", "ROAD_ACCES": "Tarmac" }, "geometry": { "type": "Point", "coordinates": [ 34.55356, -14.642 ] } },
{ "type": "Feature", "properties": { "TYPE": "Health Centre", "NAME": "Likoma /St Peters", "DISTRICT": "Likoma", "ROAD_ACCES": "Gravel Fair" }, "geometry": { "type": "Point", "coordinates": [ 34.73642, -12.06483 ] } },
{ "type": "Feature", "properties": { "TYPE": "Hospital", "NAME": "Likuni", "DISTRICT": "Lilongwe", "ROAD_ACCES": "Earth Poor" }, "geometry": { "type": "Point", "coordinates": [ 33.7085, -14.02761 ] } },
{ "type": "Feature", "properties": { "TYPE": "Hospital", "NAME": "Livingstonia", "DISTRICT": "Rumphi", "ROAD_ACCES": "Earth Poor" }, "geometry": { "type": "Point", "coordinates": [ 34.11097, -10.60417 ] } },
{ "type": "Feature", "properties": { "TYPE": "Health Centre", "NAME": "Liwaladzi", "DISTRICT": "Nkhotakota", "ROAD_ACCES": "Tarmac" }, "geometry": { "type": "Point", "coordinates": [ 34.16519, -12.62072 ] } },
{ "type": "Feature", "properties": { "TYPE": "Health Centre", "NAME": "Liwonde SDA", "DISTRICT": "Machinga", "ROAD_ACCES": "Tarmac" }, "geometry": { "type": "Point", "coordinates": [ 35.22478, -15.06797 ] } },
{ "type": "Feature", "properties": { "TYPE": "Health Centre", "NAME": "Ludzi", "DISTRICT": "Mchinji", "ROAD_ACCES": "Earth Fair" }, "geometry": { "type": "Point", "coordinates": [ 32.993, -13.75878 ] } },
{ "type": "Feature", "properties": { "TYPE": "Health Centre", "NAME": "Lugola", "DISTRICT": "Mangochi", "ROAD_ACCES": "Earth Poor" }, "geometry": { "type": "Point", "coordinates": [ 35.14167, -13.96222 ] } },
{ "type": "Feature", "properties": { "TYPE": "Health Centre", "NAME": "Lulanga", "DISTRICT": "Mangochi", "ROAD_ACCES": "Earth Fair" }, "geometry": { "type": "Point", "coordinates": [ 34.91739, -13.68731 ] } },
{ "type": "Feature", "properties": { "TYPE": "Health Centre", "NAME": "Lulwe", "DISTRICT": "Nsanje", "ROAD_ACCES": "Gravel" }, "geometry": { "type": "Point", "coordinates": [ 35.11417, -17.08761 ] } },
{ "type": "Feature", "properties": { "TYPE": "Health Centre", "NAME": "Lunjika", "DISTRICT": "Mzimba", "ROAD_ACCES": "Earth Poor" }, "geometry": { "type": "Point", "coordinates": [ 33.68569, -11.76436 ] } },
{ "type": "Feature", "properties": { "TYPE": "Health Centre", "NAME": "Luwalika", "DISTRICT": "Mangochi", "ROAD_ACCES": "Earth Fair" }, "geometry": { "type": "Point", "coordinates": [ 35.46964, -14.23803 ] } },
{ "type": "Feature", "properties": { "TYPE": "Health Centre", "NAME": "Luwazi", "DISTRICT": "Nkhata Bay", "ROAD_ACCES": "Earth Poor" }, "geometry": { "type": "Point", "coordinates": [ 34.15125, -11.51867 ] } },
{ "type": "Feature", "properties": { "TYPE": "Health Centre", "NAME": "Luwuchi", "DISTRICT": "Rumphi", "ROAD_ACCES": "Earth Fair" }, "geometry": { "type": "Point", "coordinates": [ 34.19258, -10.68361 ] } },
{ "type": "Feature", "properties": { "TYPE": "Health Centre", "NAME": "Mabiri", "DISTRICT": "Mzimba", "ROAD_ACCES": "Earth Good" }, "geometry": { "type": "Point", "coordinates": [ 33.42997, -12.24625 ] } },
{ "type": "Feature", "properties": { "TYPE": "Hospital", "NAME": "Madisi", "DISTRICT": "Dowa", "ROAD_ACCES": "Tarmac" }, "geometry": { "type": "Point", "coordinates": [ 33.60725, -13.40708 ] } },
{ "type": "Feature", "properties": { "TYPE": "Health Centre", "NAME": "Magomero", "DISTRICT": "Zomba", "ROAD_ACCES": "Gravel" }, "geometry": { "type": "Point", "coordinates": [ 35.26272, -15.55639 ] } },
{ "type": "Feature", "properties": { "TYPE": "Health Centre", "NAME": "Makapwa", "DISTRICT": "Thyolo", "ROAD_ACCES": "Earth Poor" }, "geometry": { "type": "Point", "coordinates": [ 35.28, -16.1835 ] } },
{ "type": "Feature", "properties": { "TYPE": "Health Centre", "NAME": "Malamulo", "DISTRICT": "Thyolo", "ROAD_ACCES": "Tarmac" }, "geometry": { "type": "Point", "coordinates": [ 35.10942, -16.17144 ] } },
{ "type": "Feature", "properties": { "TYPE": "Health Centre", "NAME": "Malembo", "DISTRICT": "Mangochi", "ROAD_ACCES": "Earth Fair" }, "geometry": { "type": "Point", "coordinates": [ 34.82536, -14.23642 ] } },
{ "type": "Feature", "properties": { "TYPE": "Health Centre", "NAME": "Malingunde", "DISTRICT": "Lilongwe", "ROAD_ACCES": "Earth Fair" }, "geometry": { "type": "Point", "coordinates": [ 33.6395, -14.16872 ] } },
{ "type": "Feature", "properties": { "TYPE": "Health Centre", "NAME": "Mase", "DISTRICT": "Mangochi", "ROAD_ACCES": "Earth Fair" }, "geometry": { "type": "Point", "coordinates": [ 35.36408, -14.58056 ] } },
{ "type": "Feature", "properties": { "TYPE": "Dispensary", "NAME": "Matanda", "DISTRICT": "Ntcheu", "ROAD_ACCES": "Earth Fair" }, "geometry": { "type": "Point", "coordinates": [ 34.66808, -15.10531 ] } },
{ "type": "Feature", "properties": { "TYPE": "Health Centre", "NAME": "Matandani", "DISTRICT": "Mwanza", "ROAD_ACCES": "Gravel" }, "geometry": { "type": "Point", "coordinates": [ 34.65328, -15.33075 ] } },
{ "type": "Feature", "properties": { "TYPE": "Health Centre", "NAME": "Matiya", "DISTRICT": "Zomba", "ROAD_ACCES": "Earth Fair" }, "geometry": { "type": "Point", "coordinates": [ 35.54725, -15.53397 ] } },
{ "type": "Feature", "properties": { "TYPE": "Health Centre", "NAME": "Matope", "DISTRICT": "Mwanza", "ROAD_ACCES": "Earth Poor" }, "geometry": { "type": "Point", "coordinates": [ 34.94706, -15.35375 ] } },
{ "type": "Feature", "properties": { "TYPE": "Health Centre", "NAME": "Matumba", "DISTRICT": "Dedza", "ROAD_ACCES": "Earth Poor" }, "geometry": { "type": "Point", "coordinates": [ 33.90606, -14.37272 ] } },
{ "type": "Feature", "properties": { "TYPE": "Health Centre", "NAME": "Mayaka", "DISTRICT": "Zomba", "ROAD_ACCES": "Gravel" }, "geometry": { "type": "Point", "coordinates": [ 35.37294, -15.57314 ] } },
{ "type": "Feature", "properties": { "TYPE": "Dispensary", "NAME": "Mbalanguzi", "DISTRICT": "Thyolo", "ROAD_ACCES": "Earth Fair" }, "geometry": { "type": "Point", "coordinates": [ 35.16672, -16.251 ] } },
{ "type": "Feature", "properties": { "TYPE": "Health Centre", "NAME": "Mbwatalika", "DISTRICT": "Lilongwe", "ROAD_ACCES": "Earth Fair" }, "geometry": { "type": "Point", "coordinates": [ 33.55092, -14.00372 ] } },
{ "type": "Feature", "properties": { "TYPE": "Health Centre", "NAME": "Mhalaunda", "DISTRICT": "Mzimba", "ROAD_ACCES": "Earth Poor" }, "geometry": { "type": "Point", "coordinates": [ 33.46686, -12.05111 ] } },
{ "type": "Feature", "properties": { "TYPE": "Health Centre", "NAME": "Mikondo", "DISTRICT": "Dedza", "ROAD_ACCES": "Soil Bad" }, "geometry": { "type": "Point", "coordinates": [ 33.9395, -14.44717 ] } },
{ "type": "Feature", "properties": { "TYPE": "Health Centre", "NAME": "Misomali", "DISTRICT": "Chikwawa", "ROAD_ACCES": "Gravel" }, "geometry": { "type": "Point", "coordinates": [ 34.53944, -16.03556 ] } },
{ "type": "Feature", "properties": { "TYPE": "Health Centre", "NAME": "Mitengo", "DISTRICT": "Thyolo", "ROAD_ACCES": "Earth Fair" }, "geometry": { "type": "Point", "coordinates": [ 35.24564, -16.11089 ] } },
{ "type": "Feature", "properties": { "TYPE": "Dispensary", "NAME": "Mitsidi", "DISTRICT": "Blantyre", "ROAD_ACCES": "Gravel" }, "geometry": { "type": "Point", "coordinates": [ 34.96856, -15.77761 ] } },
{ "type": "Feature", "properties": { "TYPE": "Hospital", "NAME": "Mlale", "DISTRICT": "Lilongwe", "ROAD_ACCES": "Earth Poor" }, "geometry": { "type": "Point", "coordinates": [ 33.75644, -14.23028 ] } },
{ "type": "Feature", "properties": { "TYPE": "Rural Hospital", "NAME": "Mlambe", "DISTRICT": "Blantyre", "ROAD_ACCES": "Tarmac" }, "geometry": { "type": "Point", "coordinates": [ 35.01725, -15.64478 ] } },
{ "type": "Feature", "properties": { "TYPE": "Health Centre", "NAME": "Mlanda", "DISTRICT": "Ntcheu", "ROAD_ACCES": "Tarmac" }, "geometry": { "type": "Point", "coordinates": [ 34.45964, -14.47889 ] } },
{ "type": "Feature", "properties": { "TYPE": "Clinic", "NAME": "Mlodza/Seventh Day", "DISTRICT": "Lilongwe", "ROAD_ACCES": "Earth Fair" }, "geometry": { "type": "Point", "coordinates": [ 33.818, -14.00689 ] } },
{ "type": "Feature", "properties": { "TYPE": "Health Centre", "NAME": "Mlowe", "DISTRICT": "Rumphi", "ROAD_ACCES": "Earth Fair" }, "geometry": { "type": "Point", "coordinates": [ 34.19489, -10.76431 ] } },
{ "type": "Feature", "properties": { "TYPE": "Health Centre", "NAME": "Molere", "DISTRICT": "Thyolo", "ROAD_ACCES": "Earth Fair" }, "geometry": { "type": "Point", "coordinates": [ 35.13575, -16.21751 ] } },
{ "type": "Feature", "properties": { "TYPE": "Health Centre", "NAME": "Mpasazi", "DISTRICT": "Kasungu", "ROAD_ACCES": "Earth Fair" }, "geometry": { "type": "Point", "coordinates": [ 33.38186, -12.58319 ] } },
{ "type": "Feature", "properties": { "TYPE": "Health Centre", "NAME": "Mpherere", "DISTRICT": "Ntchisi", "ROAD_ACCES": "Earth Fair" }, "geometry": { "type": "Point", "coordinates": [ 33.91908, -13.36892 ] } },
{ "type": "Feature", "properties": { "TYPE": "Health Centre", "NAME": "Mphunzi", "DISTRICT": "Dedza", "ROAD_ACCES": "Earth Fair" }, "geometry": { "type": "Point", "coordinates": [ 34.17522, -14.37822 ] } },
{ "type": "Feature", "properties": { "TYPE": "Health Centre", "NAME": "Mpiri", "DISTRICT": "Machinga", "ROAD_ACCES": "Earth Fair" }, "geometry": { "type": "Point", "coordinates": [ 35.60733, -14.77253 ] } },
{ "type": "Feature", "properties": { "TYPE": "Health Centre", "NAME": "Mpondasi", "DISTRICT": "Mangochi", "ROAD_ACCES": "Earth Fair" }, "geometry": { "type": "Point", "coordinates": [ 35.24417, -14.45333 ] } },
{ "type": "Feature", "properties": { "TYPE": "Health Centre", "NAME": "Mposa", "DISTRICT": "Machinga", "ROAD_ACCES": "Earth Fair" }, "geometry": { "type": "Point", "coordinates": [ 35.51833, -15.14917 ] } },
{ "type": "Feature", "properties": { "TYPE": "Health Centre", "NAME": "Mtendere", "DISTRICT": "Dedza", "ROAD_ACCES": "Earth Poor" }, "geometry": { "type": "Point", "coordinates": [ 34.09286, -14.32272 ] } },
{ "type": "Feature", "properties": { "TYPE": "Hospital", "NAME": "Mtengowanthenga", "DISTRICT": "Dowa", "ROAD_ACCES": "Tarmac" }, "geometry": { "type": "Point", "coordinates": [ 33.77133, -13.67128 ] } },
{ "type": "Feature", "properties": { "TYPE": "Hospital", "NAME": "Mua", "DISTRICT": "Dedza", "ROAD_ACCES": "Earth Fair" }, "geometry": { "type": "Point", "coordinates": [ 34.50933, -14.28278 ] } },
{ "type": "Feature", "properties": { "TYPE": "Rural Hospital", "NAME": "Mulanje Mission", "DISTRICT": "Mulanje", "ROAD_ACCES": "Earth Fair" }, "geometry": { "type": "Point", "coordinates": [ 35.46419, -16.02086 ] } },
{ "type": "Feature", "properties": { "TYPE": "Health Centre", "NAME": "Mulibwanji", "DISTRICT": "Mangochi", "ROAD_ACCES": "Tarmac" }, "geometry": { "type": "Point", "coordinates": [ 35.588, -14.51158 ] } },
{ "type": "Feature", "properties": { "TYPE": "Health Centre", "NAME": "Mvera", "DISTRICT": "Dowa", "ROAD_ACCES": "Gravel" }, "geometry": { "type": "Point", "coordinates": [ 34.12839, -13.73686 ] } },
{ "type": "Feature", "properties": { "TYPE": "Health Centre", "NAME": "Mwanga", "DISTRICT": "Phalombe", "ROAD_ACCES": "Earth Fair" }, "geometry": { "type": "Point", "coordinates": [ 35.53194, -15.64611 ] } },
{ "type": "Feature", "properties": { "TYPE": "Health Centre", "NAME": "Mzama", "DISTRICT": "Ntcheu", "ROAD_ACCES": "Earth Fair" }, "geometry": { "type": "Point", "coordinates": [ 34.58592, -14.89353 ] } },
{ "type": "Feature", "properties": { "TYPE": "Hospital", "NAME": "Mzambazi", "DISTRICT": "Mzimba", "ROAD_ACCES": "Earth Fair" }, "geometry": { "type": "Point", "coordinates": [ 33.43367, -11.42764 ] } },
{ "type": "Feature", "properties": { "TYPE": "Health Centre", "NAME": "Nakalanzi", "DISTRICT": "Dedza", "ROAD_ACCES": "Earth Poor" }, "geometry": { "type": "Point", "coordinates": [ 34.54892, -14.20261 ] } },
{ "type": "Feature", "properties": { "TYPE": "Health Centre", "NAME": "Namalaka", "DISTRICT": "Mangochi", "ROAD_ACCES": "Earth Fair" }, "geometry": { "type": "Point", "coordinates": [ 35.19322, -14.12381 ] } },
{ "type": "Feature", "properties": { "TYPE": "Health Centre", "NAME": "Namandanje", "DISTRICT": "Machinga", "ROAD_ACCES": "Earth Fair" }, "geometry": { "type": "Point", "coordinates": [ 35.48328, -14.88214 ] } },
{ "type": "Feature", "properties": { "TYPE": "Health Centre", "NAME": "Namasalima", "DISTRICT": "Mulanje", "ROAD_ACCES": "Earth Fair" }, "geometry": { "type": "Point", "coordinates": [ 35.71558, -16.08033 ] } },
{ "type": "Feature", "properties": { "TYPE": "Health Centre", "NAME": "Nambuma", "DISTRICT": "Lilongwe", "ROAD_ACCES": "Earth Fair" }, "geometry": { "type": "Point", "coordinates": [ 33.558, -13.72611 ] } },
{ "type": "Feature", "properties": { "TYPE": "Health Centre", "NAME": "Namikango", "DISTRICT": "Zomba", "ROAD_ACCES": "Earth Fair" }, "geometry": { "type": "Point", "coordinates": [ 35.24069, -15.47731 ] } },
{ "type": "Feature", "properties": { "TYPE": "Dispensary", "NAME": "Namisu", "DISTRICT": "Ntcheu", "ROAD_ACCES": "Earth Poor" }, "geometry": { "type": "Point", "coordinates": [ 34.78122, -15.08353 ] } },
{ "type": "Feature", "properties": { "TYPE": "Health Centre", "NAME": "Namulenga", "DISTRICT": "Mulanje", "ROAD_ACCES": "Earth Fair" }, "geometry": { "type": "Point", "coordinates": [ 35.32747, -15.86542 ] } },
{ "type": "Feature", "properties": { "TYPE": "Health Centre", "NAME": "Nankwale", "DISTRICT": "Mangochi", "ROAD_ACCES": "Earth Fair" }, "geometry": { "type": "Point", "coordinates": [ 34.84478, -14.13511 ] } },
{ "type": "Feature", "properties": { "TYPE": "Health Centre", "NAME": "Neno Palish", "DISTRICT": "Mwanza", "ROAD_ACCES": "Gravel" }, "geometry": { "type": "Point", "coordinates": [ 34.60828, -15.43708 ] } },
{ "type": "Feature", "properties": { "TYPE": "Health Centre", "NAME": "Ngabu SDA", "DISTRICT": "Chikwawa", "ROAD_ACCES": "Gravel" }, "geometry": { "type": "Point", "coordinates": [ 34.87911, -16.46494 ] } },
{ "type": "Feature", "properties": { "TYPE": "Health Centre", "NAME": "Ngodzi", "DISTRICT": "Salima", "ROAD_ACCES": "Earth Fair" }, "geometry": { "type": "Point", "coordinates": [ 34.51139, -14.08997 ] } },
{ "type": "Feature", "properties": { "TYPE": "Health Centre", "NAME": "Nkasala", "DISTRICT": "Zomba", "ROAD_ACCES": "Gravel" }, "geometry": { "type": "Point", "coordinates": [ 35.21703, -15.32789 ] } },
{ "type": "Feature", "properties": { "TYPE": "Hospital", "NAME": "Nkhamenya", "DISTRICT": "Kasungu", "ROAD_ACCES": "Earth Fair" }, "geometry": { "type": "Point", "coordinates": [ 33.50136, -12.56603 ] } },
{ "type": "Feature", "properties": { "TYPE": "Health Centre", "NAME": "Nkholongo", "DISTRICT": "Mzimba", "ROAD_ACCES": "Gravel Good" }, "geometry": { "type": "Point", "coordinates": [ 33.98492, -11.39011 ] } },
{ "type": "Feature", "properties": { "TYPE": "Hospital", "NAME": "Nkhoma", "DISTRICT": "Lilongwe", "ROAD_ACCES": "Earth Fair" }, "geometry": { "type": "Point", "coordinates": [ 34.10308, -14.04406 ] } },
{ "type": "Feature", "properties": { "TYPE": "Health Centre", "NAME": "Nkope", "DISTRICT": "Mangochi", "ROAD_ACCES": "Earth Fair" }, "geometry": { "type": "Point", "coordinates": [ 35.03947, -14.19708 ] } },
{ "type": "Feature", "properties": { "TYPE": "Health Centre", "NAME": "Nsambe", "DISTRICT": "Mwanza", "ROAD_ACCES": "Gravel" }, "geometry": { "type": "Point", "coordinates": [ 34.61361, -15.26181 ] } },
{ "type": "Feature", "properties": { "TYPE": "Health Centre", "NAME": "Nsanama", "DISTRICT": "Machinga", "ROAD_ACCES": "Earth Fair" }, "geometry": { "type": "Point", "coordinates": [ 35.49478, -14.99486 ] } },
{ "type": "Feature", "properties": { "TYPE": "Health Centre", "NAME": "Nsipe", "DISTRICT": "Ntcheu", "ROAD_ACCES": "Tarmac" }, "geometry": { "type": "Point", "coordinates": [ 34.75167, -14.86422 ] } },
{ "type": "Feature", "properties": { "TYPE": "Health Centre", "NAME": "Nthenje", "DISTRICT": "Rumphi", "ROAD_ACCES": "Earth Poor" }, "geometry": { "type": "Point", "coordinates": [ 33.98803, -10.91789 ] } },
{ "type": "Feature", "properties": { "TYPE": "Rural Hospital", "NAME": "Ntonda", "DISTRICT": "Ntcheu", "ROAD_ACCES": "Earth Fair" }, "geometry": { "type": "Point", "coordinates": [ 34.75303, -15.01992 ] } },
{ "type": "Feature", "properties": { "TYPE": "Hospital", "NAME": "Phalombe Mission", "DISTRICT": "Phalombe", "ROAD_ACCES": "Earth Poor" }, "geometry": { "type": "Point", "coordinates": [ 35.61872, -15.82469 ] } },
{ "type": "Feature", "properties": { "TYPE": "Health Centre", "NAME": "Phalula", "DISTRICT": "Balaka", "ROAD_ACCES": "Tarmac" }, "geometry": { "type": "Point", "coordinates": [ 34.89331, -15.22547 ] } },
{ "type": "Feature", "properties": { "TYPE": "Health Centre", "NAME": "PIM", "DISTRICT": "Chiradzulu", "ROAD_ACCES": "Gravel" }, "geometry": { "type": "Point", "coordinates": [ 35.19194, -15.75317 ] } },
{ "type": "Feature", "properties": { "TYPE": "Health Centre", "NAME": "Pirimiti", "DISTRICT": "Zomba", "ROAD_ACCES": "Gravel" }, "geometry": { "type": "Point", "coordinates": [ 35.451, -15.48281 ] } },
{ "type": "Feature", "properties": { "TYPE": "Health Centre", "NAME": "Sangilo", "DISTRICT": "Karonga", "ROAD_ACCES": "Earth Fair" }, "geometry": { "type": "Point", "coordinates": [ 34.21325, -10.51594 ] } },
{ "type": "Feature", "properties": { "TYPE": "Health Centre", "NAME": "Senga Bay Baptist", "DISTRICT": "Salima", "ROAD_ACCES": "Tarmac" }, "geometry": { "type": "Point", "coordinates": [ 34.59536, -13.74117 ] } },
{ "type": "Feature", "properties": { "TYPE": "Health Centre", "NAME": "Senzani", "DISTRICT": "Ntcheu", "ROAD_ACCES": null }, "geometry": { "type": "Point", "coordinates": [ 34.85786, -15.07864 ] } },
{ "type": "Feature", "properties": { "TYPE": "Health Centre", "NAME": "Sharpe Valley", "DISTRICT": "Ntcheu", "ROAD_ACCES": null }, "geometry": { "type": "Point", "coordinates": [ 34.73672, -14.61117 ] } },
{ "type": "Feature", "properties": { "TYPE": "Health Centre", "NAME": "Sister Martha", "DISTRICT": "Mangochi", "ROAD_ACCES": "Earth Fair" }, "geometry": { "type": "Point", "coordinates": [ 35.53558, -14.38539 ] } },
{ "type": "Feature", "properties": { "TYPE": "Rural Hospital", "NAME": "Sister Theresa", "DISTRICT": "Ntcheu", "ROAD_ACCES": "Earth Fair" }, "geometry": { "type": "Point", "coordinates": [ 34.82819, -14.99925 ] } },
{ "type": "Feature", "properties": { "TYPE": "Dispensary", "NAME": "Soche SDA", "DISTRICT": "Blantyre", "ROAD_ACCES": "Tarmac" }, "geometry": { "type": "Point", "coordinates": [ 35.06378, -15.8105 ] } },
{ "type": "Feature", "properties": { "TYPE": "Health Centre", "NAME": "St Andrews", "DISTRICT": "Kasungu", "ROAD_ACCES": "Tarmac" }, "geometry": { "type": "Point", "coordinates": [ 33.67125, -13.03294 ] } },
{ "type": "Feature", "properties": { "TYPE": "Hospital", "NAME": "St Gabriel", "DISTRICT": "Lilongwe", "ROAD_ACCES": "Earth Fair" }, "geometry": { "type": "Point", "coordinates": [ 33.35094, -13.98439 ] } },
{ "type": "Feature", "properties": { "TYPE": "Mental Hospital", "NAME": "St John of God", "DISTRICT": "Mzimba", "ROAD_ACCES": "Tarmac" }, "geometry": null },
{ "type": "Feature", "properties": { "TYPE": "Hospital", "NAME": "St Johns", "DISTRICT": "Mzimba", "ROAD_ACCES": "Tarmac Good" }, "geometry": { "type": "Point", "coordinates": [ 34.02831, -11.45156 ] } },
{ "type": "Feature", "properties": { "TYPE": "Hospital", "NAME": "St Joseph", "DISTRICT": "Chiradzulu", "ROAD_ACCES": "Gravel" }, "geometry": { "type": "Point", "coordinates": [ 35.16881, -15.80178 ] } },
{ "type": "Feature", "properties": { "TYPE": "Hospital", "NAME": "St Martin", "DISTRICT": "Mangochi", "ROAD_ACCES": "Earth Fair" }, "geometry": { "type": "Point", "coordinates": [ 35.29367, -14.3475 ] } },
{ "type": "Feature", "properties": { "TYPE": "Health Centre", "NAME": "St Mary's /Chizumulu", "DISTRICT": "Likoma", "ROAD_ACCES": "Gravel Fair" }, "geometry": { "type": "Point", "coordinates": [ 34.62419, -12.02908 ] } },
{ "type": "Feature", "properties": { "TYPE": "Rural Hospital", "NAME": "St Montfort", "DISTRICT": "Chikwawa", "ROAD_ACCES": "Tarmac" }, "geometry": { "type": "Point", "coordinates": [ 34.86875, -16.25656 ] } },
{ "type": "Feature", "properties": { "TYPE": "Health Centre", "NAME": "St Patricks", "DISTRICT": "Rumphi", "ROAD_ACCES": "Earth Fair" }, "geometry": { "type": "Point", "coordinates": [ 33.87306, -11.02278 ] } },
{ "type": "Feature", "properties": { "TYPE": "Health Centre", "NAME": "St. Annes", "DISTRICT": "Karonga", "ROAD_ACCES": "Earth Fair" }, "geometry": { "type": "Point", "coordinates": [ 34.21158, -10.41189 ] } },
{ "type": "Feature", "properties": { "TYPE": "Hospital", "NAME": "St. Annes", "DISTRICT": "Nkhotakota", "ROAD_ACCES": "Tarmac" }, "geometry": { "type": "Point", "coordinates": [ 34.29603, -12.92672 ] } },
{ "type": "Feature", "properties": { "TYPE": "Health Centre", "NAME": "St. Joseph", "DISTRICT": "Dedza", "ROAD_ACCES": "Earth Poor" }, "geometry": { "type": "Point", "coordinates": [ 34.25883, -14.07644 ] } },
{ "type": "Feature", "properties": { "TYPE": "Rural Hospital", "NAME": "St. Lukes", "DISTRICT": "Zomba", "ROAD_ACCES": "Tarmac" }, "geometry": { "type": "Point", "coordinates": [ 35.35264, -15.209 ] } },
{ "type": "Feature", "properties": { "TYPE": "Health Centre", "NAME": "Sukasanje", "DISTRICT": "Phalombe", "ROAD_ACCES": "Earth Fair" }, "geometry": { "type": "Point", "coordinates": [ 35.76542, -15.93047 ] } },
{ "type": "Feature", "properties": { "TYPE": "Health Centre", "NAME": "Tcharo", "DISTRICT": "Rumphi", "ROAD_ACCES": "Water Transport" }, "geometry": { "type": "Point", "coordinates": [ 34.22286, -10.96214 ] } },
{ "type": "Feature", "properties": { "TYPE": "Health Centre", "NAME": "Thavite", "DISTRICT": "Salima", "ROAD_ACCES": "Tarmac" }, "geometry": { "type": "Point", "coordinates": [ 34.26125, -13.49906 ] } },
{ "type": "Feature", "properties": { "TYPE": "Dispensary", "NAME": "Thembe", "DISTRICT": "Mulanje", "ROAD_ACCES": "Earth Poor" }, "geometry": { "type": "Point", "coordinates": [ 35.43386, -16.08736 ] } },
{ "type": "Feature", "properties": { "TYPE": "Health Centre", "NAME": "Thomasi", "DISTRICT": "Thyolo", "ROAD_ACCES": "Earth Fair" }, "geometry": { "type": "Point", "coordinates": [ 34.97947, -16.02778 ] } },
{ "type": "Feature", "properties": { "TYPE": "Rural Hospital", "NAME": "Trinity", "DISTRICT": "Nsanje", "ROAD_ACCES": "Gravel" }, "geometry": { "type": "Point", "coordinates": [ 35.17175, -16.41917 ] } },
{ "type": "Feature", "properties": { "TYPE": "Health Centre", "NAME": "Tsangano", "DISTRICT": "Ntcheu", "ROAD_ACCES": "Earth Fair" }, "geometry": { "type": "Point", "coordinates": [ 34.61092, -15.17392 ] } },
{ "type": "Feature", "properties": { "TYPE": "Health Centre", "NAME": "Ulongwe", "DISTRICT": "Balaka", "ROAD_ACCES": "Earth Fair" }, "geometry": { "type": "Point", "coordinates": [ 35.17667, -14.86197 ] } },
{ "type": "Feature", "properties": { "TYPE": "Dispensary", "NAME": "Utale I", "DISTRICT": "Balaka", "ROAD_ACCES": "Earth Fair" }, "geometry": { "type": "Point", "coordinates": [ 35.06433, -15.17753 ] } },
{ "type": "Feature", "properties": { "TYPE": "Health Centre", "NAME": "Utale II", "DISTRICT": "Balaka", "ROAD_ACCES": "Earth Fair" }, "geometry": { "type": "Point", "coordinates": [ 35.07, -15.16847 ] } },
{ "type": "Feature", "properties": { "TYPE": "Clinic", "NAME": "Wovwe Escom", "DISTRICT": "Karonga", "ROAD_ACCES": "Gravel" }, "geometry": { "type": "Point", "coordinates": [ 34.0925, -10.56472 ] } },
{ "type": "Feature", "properties": { "TYPE": "Dispensary", "NAME": "Chombe Estate", "DISTRICT": "Nkhata Bay", "ROAD_ACCES": "Gravel Fair" }, "geometry": { "type": "Point", "coordinates": [ 34.21228, -11.64761 ] } },
{ "type": "Feature", "properties": { "TYPE": "Dispensary", "NAME": "Kavuzi", "DISTRICT": "Nkhata Bay", "ROAD_ACCES": "Earth Poor" }, "geometry": { "type": "Point", "coordinates": [ 34.08189, -11.67453 ] } },
{ "type": "Feature", "properties": { "TYPE": "Clinic", "NAME": "Kawalazi Estate", "DISTRICT": "Nkhata Bay", "ROAD_ACCES": "Earth Fair" }, "geometry": { "type": "Point", "coordinates": [ 34.10969, -11.64422 ] } },
{ "type": "Feature", "properties": { "TYPE": "Health Centre", "NAME": "Sable", "DISTRICT": "Mangochi", "ROAD_ACCES": "Earth Fair" }, "geometry": { "type": "Point", "coordinates": [ 35.33697, -14.02519 ] } },
{ "type": "Feature", "properties": { "TYPE": "Dispensary", "NAME": "Vizara", "DISTRICT": "Nkhata Bay", "ROAD_ACCES": "Earth Good" }, "geometry": { "type": "Point", "coordinates": [ 34.26117, -11.66661 ] } },
{ "type": "Feature", "properties": { "TYPE": "Health Centre", "NAME": "Chikangawa", "DISTRICT": "Mzimba", "ROAD_ACCES": "Tarmac" }, "geometry": { "type": "Point", "coordinates": [ 33.80064, -11.84342 ] } },
{ "type": "Feature", "properties": { "TYPE": "Clinic", "NAME": "Dzalanyama/Kapombeza", "DISTRICT": "Lilongwe", "ROAD_ACCES": "Earth Poor" }, "geometry": { "type": "Point", "coordinates": [ 33.44453, -14.24956 ] } },
{ "type": "Feature", "properties": { "TYPE": "Dispensary", "NAME": "Forestry", "DISTRICT": "Zomba", "ROAD_ACCES": "Tarmac" }, "geometry": { "type": "Point", "coordinates": [ 35.29314, -15.35578 ] } },
{ "type": "Feature", "properties": { "TYPE": "Health Centre", "NAME": "Blantyre Civil Centre", "DISTRICT": "Blantyre", "ROAD_ACCES": "Tarmac" }, "geometry": { "type": "Point", "coordinates": [ 35.03403, -15.80328 ] } },
{ "type": "Feature", "properties": { "TYPE": "Health Centre", "NAME": "Chimvu", "DISTRICT": "Thyolo", "ROAD_ACCES": "Earth Poor" }, "geometry": { "type": "Point", "coordinates": [ 35.15083, -15.95139 ] } },
{ "type": "Feature", "properties": { "TYPE": "Health Centre", "NAME": "Chinsapo", "DISTRICT": "Lilongwe", "ROAD_ACCES": "Earth Fair" }, "geometry": { "type": "Point", "coordinates": [ 33.73167, -14.01322 ] } },
{ "type": "Feature", "properties": { "TYPE": "Maternity", "NAME": "Chiringa", "DISTRICT": "Phalombe", "ROAD_ACCES": "Earth Fair" }, "geometry": { "type": "Point", "coordinates": [ 35.76964, -15.77244 ] } },
{ "type": "Feature", "properties": { "TYPE": "Maternity", "NAME": "Chithumba", "DISTRICT": "Chikwawa", "ROAD_ACCES": "Gravel" }, "geometry": { "type": "Point", "coordinates": [ 34.4765, -15.80397 ] } },
{ "type": "Feature", "properties": { "TYPE": "Clinic", "NAME": "City Assembly Health", "DISTRICT": "Lilongwe", "ROAD_ACCES": "Tarmac" }, "geometry": { "type": "Point", "coordinates": [ 33.77144, -13.98925 ] } },
{ "type": "Feature", "properties": { "TYPE": "Health Centre", "NAME": "Diampwe", "DISTRICT": "Lilongwe", "ROAD_ACCES": "Tarmac" }, "geometry": { "type": "Point", "coordinates": [ 34.08153, -14.13436 ] } },
{ "type": "Feature", "properties": { "TYPE": "Health Centre", "NAME": "Dickson", "DISTRICT": "Lilongwe", "ROAD_ACCES": "Earth Fair" }, "geometry": { "type": "Point", "coordinates": [ 33.65869, -14.26653 ] } },
{ "type": "Feature", "properties": { "TYPE": "Maternity", "NAME": "Dzenje", "DISTRICT": "Mulanje", "ROAD_ACCES": "Earth Fair" }, "geometry": { "type": "Point", "coordinates": [ 35.40589, -16.11706 ] } },
{ "type": "Feature", "properties": { "TYPE": "Maternity", "NAME": "Gombe", "DISTRICT": "Thyolo", "ROAD_ACCES": "Gravel" }, "geometry": { "type": "Point", "coordinates": [ 35.23061, -16.38347 ] } },
{ "type": "Feature", "properties": { "TYPE": "Maternity", "NAME": "Kaloga", "DISTRICT": "Ntcheu", "ROAD_ACCES": "Earth Fair" }, "geometry": { "type": "Point", "coordinates": [ 34.58033, -14.90694 ] } },
{ "type": "Feature", "properties": { "TYPE": "Dispensary", "NAME": "Kampanje", "DISTRICT": "Ntcheu", "ROAD_ACCES": "Earth Poor" }, "geometry": { "type": "Point", "coordinates": [ 34.58672, -14.59897 ] } },
{ "type": "Feature", "properties": { "TYPE": "Clinic", "NAME": "Kasauka Nutr; Rehab; unit", "DISTRICT": "Kasungu", "ROAD_ACCES": "Earth" }, "geometry": { "type": "Point", "coordinates": [ 33.49897, -13.03978 ] } },
{ "type": "Feature", "properties": { "TYPE": "Health Centre", "NAME": "Khongoni", "DISTRICT": "Lilongwe", "ROAD_ACCES": "Earth Fair" }, "geometry": { "type": "Point", "coordinates": [ 33.3675, -13.7745 ] } },
{ "type": "Feature", "properties": { "TYPE": "Health Centre", "NAME": "Lwezga", "DISTRICT": "Karonga", "ROAD_ACCES": "Tarmac" }, "geometry": { "type": "Point", "coordinates": [ 34.17944, -10.56689 ] } },
{ "type": "Feature", "properties": { "TYPE": "Health Centre", "NAME": "Machinga", "DISTRICT": "Machinga", "ROAD_ACCES": null }, "geometry": { "type": "Point", "coordinates": [ 35.29564, -15.17742 ] } },
{ "type": "Feature", "properties": { "TYPE": "Health Centre", "NAME": "Maluwa", "DISTRICT": "Lilongwe", "ROAD_ACCES": "Earth Fair" }, "geometry": { "type": "Point", "coordinates": [ 33.87378, -14.26294 ] } },
{ "type": "Feature", "properties": { "TYPE": "Maternity", "NAME": "Mangunda", "DISTRICT": "Thyolo", "ROAD_ACCES": "Tarmac" }, "geometry": { "type": "Point", "coordinates": [ 35.26139, -16.02864 ] } },
{ "type": "Feature", "properties": { "TYPE": "Maternity", "NAME": "Manjawira", "DISTRICT": "Ntcheu", "ROAD_ACCES": "Tarmac" }, "geometry": { "type": "Point", "coordinates": [ 34.85964, -15.00828 ] } },
{ "type": "Feature", "properties": { "TYPE": "Clinic", "NAME": "Mapanga", "DISTRICT": "Thyolo", "ROAD_ACCES": "Earth Fair" }, "geometry": { "type": "Point", "coordinates": [ 35.19694, -16.27612 ] } },
{ "type": "Feature", "properties": { "TYPE": "Dispensary", "NAME": "Matuli", "DISTRICT": "Mzimba", "ROAD_ACCES": "Earth Fair" }, "geometry": { "type": "Point", "coordinates": [ 33.89622, -11.48533 ] } },
{ "type": "Feature", "properties": { "TYPE": "Maternity", "NAME": "Mayani", "DISTRICT": "Dedza", "ROAD_ACCES": "Earth Poor" }, "geometry": { "type": "Point", "coordinates": [ 34.25336, -14.10108 ] } },
{ "type": "Feature", "properties": { "TYPE": "Health Centre", "NAME": "Mbangombe", "DISTRICT": "Lilongwe", "ROAD_ACCES": "Earth Fair" }, "geometry": { "type": "Point", "coordinates": [ 33.71392, -13.73694 ] } },
{ "type": "Feature", "properties": { "TYPE": "Maternity", "NAME": "Mphunzi", "DISTRICT": "Dedza", "ROAD_ACCES": "Earth Fair" }, "geometry": { "type": "Point", "coordinates": [ 34.18397, -14.38047 ] } },
{ "type": "Feature", "properties": { "TYPE": "Clinic", "NAME": "Municipal", "DISTRICT": "Zomba", "ROAD_ACCES": "Tarmac" }, "geometry": { "type": "Point", "coordinates": [ 35.32425, -15.39061 ] } },
{ "type": "Feature", "properties": { "TYPE": "Maternity", "NAME": "Mwangala", "DISTRICT": "Dowa", "ROAD_ACCES": "Earth Fair" }, "geometry": { "type": "Point", "coordinates": [ 33.92339, -13.48733 ] } },
{ "type": "Feature", "properties": { "TYPE": "Health Centre", "NAME": "Nalunga", "DISTRICT": "Dowa", "ROAD_ACCES": "Earth Fair" }, "geometry": { "type": "Point", "coordinates": [ 34.06356, -13.64044 ] } },
{ "type": "Feature", "properties": { "TYPE": "Health Centre", "NAME": "Ngoni", "DISTRICT": "Lilongwe", "ROAD_ACCES": "Earth Fair" }, "geometry": { "type": "Point", "coordinates": [ 33.64022, -13.77492 ] } },
{ "type": "Feature", "properties": { "TYPE": "Maternity", "NAME": "Nkhataombere", "DISTRICT": "Thyolo", "ROAD_ACCES": "Earth Poor" }, "geometry": { "type": "Point", "coordinates": [ 35.2639, -16.3239 ] } },
{ "type": "Feature", "properties": { "TYPE": "Dispensary", "NAME": "Offesi", "DISTRICT": "Kasungu", "ROAD_ACCES": "Earth Fair" }, "geometry": { "type": "Point", "coordinates": [ 33.54881, -12.7795 ] } },
{ "type": "Feature", "properties": { "TYPE": "Dispensary", "NAME": "Ruarwe", "DISTRICT": "Nkhata Bay", "ROAD_ACCES": "Water Transport" }, "geometry": { "type": "Point", "coordinates": [ 34.23092, -11.11367 ] } },
{ "type": "Feature", "properties": { "TYPE": "Maternity", "NAME": "Soche", "DISTRICT": "Blantyre", "ROAD_ACCES": "Gravel" }, "geometry": { "type": "Point", "coordinates": [ 35.0275, -15.85767 ] } },
{ "type": "Feature", "properties": { "TYPE": "Dispensary", "NAME": "Chilumba Garrison", "DISTRICT": "Karonga", "ROAD_ACCES": "Good" }, "geometry": { "type": "Point", "coordinates": [ 34.20881, -10.39017 ] } },
{ "type": "Feature", "properties": { "TYPE": "Dispensary", "NAME": "Cobbe Barracks", "DISTRICT": "Zomba", "ROAD_ACCES": "Tarmac" }, "geometry": { "type": "Point", "coordinates": [ 35.30497, -15.39075 ] } },
{ "type": "Feature", "properties": { "TYPE": "Health Centre", "NAME": "Mafco", "DISTRICT": "Salima", "ROAD_ACCES": "Tarmac" }, "geometry": { "type": "Point", "coordinates": [ 34.60356, -13.78447 ] } },
{ "type": "Feature", "properties": { "TYPE": "Dispensary", "NAME": "Malalwi Army Marine", "DISTRICT": "Mangochi", "ROAD_ACCES": "Gravel" }, "geometry": { "type": "Point", "coordinates": [ 34.91736, -14.07275 ] } },
{ "type": "Feature", "properties": { "TYPE": "Health Centre", "NAME": "Moyale", "DISTRICT": "Mzimba", "ROAD_ACCES": "Tarmac" }, "geometry": { "type": "Point", "coordinates": [ 34.03844, -11.45967 ] } },
{ "type": "Feature", "properties": { "TYPE": "Clinic", "NAME": "Mvera Army", "DISTRICT": "Dowa", "ROAD_ACCES": "Earth Fair" }, "geometry": { "type": "Point", "coordinates": [ 34.13983, -13.77958 ] } },
{ "type": "Feature", "properties": { "TYPE": "Dispensary", "NAME": "Parachute Battallion", "DISTRICT": "Salima", "ROAD_ACCES": "Earth Poor" }, "geometry": { "type": "Point", "coordinates": [ 34.588, -13.7435 ] } },
{ "type": "Feature", "properties": { "TYPE": "Clinic", "NAME": "Malawi army air wing", "DISTRICT": "Lilongwe", "ROAD_ACCES": "Tarmac" }, "geometry": { "type": "Point", "coordinates": [ 33.69692, -13.96439 ] } },
{ "type": "Feature", "properties": { "TYPE": "Health Centre", "NAME": "AREA 18", "DISTRICT": "Lilongwe", "ROAD_ACCES": "Tarmac" }, "geometry": { "type": "Point", "coordinates": [ 33.78067, -13.94106 ] } },
{ "type": "Feature", "properties": { "TYPE": "Health Centre", "NAME": "AREA 25", "DISTRICT": "Lilongwe", "ROAD_ACCES": "Tarmac" }, "geometry": { "type": "Point", "coordinates": [ 33.77389, -13.89242 ] } },
{ "type": "Feature", "properties": { "TYPE": "District Hospital", "NAME": "Balaka", "DISTRICT": "Balaka", "ROAD_ACCES": "Tarmac" }, "geometry": { "type": "Point", "coordinates": [ 34.94953, -14.98514 ] } },
{ "type": "Feature", "properties": { "TYPE": "Health Centre", "NAME": "Balaka", "DISTRICT": "Balaka", "ROAD_ACCES": "Tarmac" }, "geometry": { "type": "Point", "coordinates": [ 34.96164, -14.99119 ] } },
{ "type": "Feature", "properties": { "TYPE": "Health Centre", "NAME": "Beleu", "DISTRICT": "Chikwawa", "ROAD_ACCES": "Tarmac" }, "geometry": { "type": "Point", "coordinates": [ 34.85386, -16.15203 ] } },
{ "type": "Feature", "properties": { "TYPE": "Health Centre", "NAME": "Benga", "DISTRICT": "Nkhotakota", "ROAD_ACCES": "Tarmac" }, "geometry": { "type": "Point", "coordinates": [ 34.27403, -13.36853 ] } },
{ "type": "Feature", "properties": { "TYPE": "Health Centre", "NAME": "Bilira", "DISTRICT": "Ntcheu", "ROAD_ACCES": "Tarmac" }, "geometry": { "type": "Point", "coordinates": [ 34.85253, -14.82561 ] } },
{ "type": "Feature", "properties": { "TYPE": "Health Centre", "NAME": "Bimbi", "DISTRICT": "Zomba", "ROAD_ACCES": "Earth Fair" }, "geometry": { "type": "Point", "coordinates": [ 35.47944, -15.30922 ] } },
{ "type": "Feature", "properties": { "TYPE": "Health Centre", "NAME": "Biriwiri", "DISTRICT": "Ntcheu", "ROAD_ACCES": "Tarmac" }, "geometry": { "type": "Point", "coordinates": [ 34.5575, -14.76083 ] } },
{ "type": "Feature", "properties": { "TYPE": "Rural Hospital", "NAME": "Bolero", "DISTRICT": "Rumphi", "ROAD_ACCES": "Earth Fair" }, "geometry": { "type": "Point", "coordinates": [ 33.74306, -10.97861 ] } },
{ "type": "Feature", "properties": { "TYPE": "Hospital", "NAME": "Bottom", "DISTRICT": "Lilongwe", "ROAD_ACCES": "Tarmac" }, "geometry": { "type": "Point", "coordinates": [ 33.77478, -13.99103 ] } },
{ "type": "Feature", "properties": { "TYPE": "Health Centre", "NAME": "Bowe", "DISTRICT": "Dowa", "ROAD_ACCES": "Earth Fair" }, "geometry": { "type": "Point", "coordinates": [ 33.68406, -13.27881 ] } },
{ "type": "Feature", "properties": { "TYPE": "Dispensary", "NAME": "Bua", "DISTRICT": "Kasungu", "ROAD_ACCES": "Earth" }, "geometry": { "type": "Point", "coordinates": [ 33.5385, -13.29372 ] } },
{ "type": "Feature", "properties": { "TYPE": "Dispensary", "NAME": "Bua", "DISTRICT": "Nkhotakota", "ROAD_ACCES": "Tarmac" }, "geometry": { "type": "Point", "coordinates": [ 34.20961, -12.79644 ] } },
{ "type": "Feature", "properties": { "TYPE": "Health Centre", "NAME": "Bula", "DISTRICT": "Nkhata Bay", "ROAD_ACCES": "Earth Fair" }, "geometry": { "type": "Point", "coordinates": [ 34.12319, -11.22269 ] } },
{ "type": "Feature", "properties": { "TYPE": "Health Centre", "NAME": "Bulala", "DISTRICT": "Mzimba", "ROAD_ACCES": "Earth Fair" }, "geometry": { "type": "Point", "coordinates": [ 33.44803, -11.67836 ] } },
{ "type": "Feature", "properties": { "TYPE": "Health Centre", "NAME": "Bvumbwe Research", "DISTRICT": "Thyolo", "ROAD_ACCES": "Earth Fair" }, "geometry": { "type": "Point", "coordinates": [ 35.06808, -15.8903 ] } },
{ "type": "Feature", "properties": { "TYPE": "Health Centre", "NAME": "Bwanje", "DISTRICT": "Ntcheu", "ROAD_ACCES": "Tarmac" }, "geometry": { "type": "Point", "coordinates": [ 34.77469, -14.64867 ] } },
{ "type": "Feature", "properties": { "TYPE": "Health Centre", "NAME": "Chabvala", "DISTRICT": "Blantyre", "ROAD_ACCES": "Gravel" }, "geometry": { "type": "Point", "coordinates": [ 34.83422, -15.83414 ] } },
{ "type": "Feature", "properties": { "TYPE": "Health Centre", "NAME": "Chadza/ Unit 33", "DISTRICT": "Lilongwe", "ROAD_ACCES": "Earth Fair" }, "geometry": { "type": "Point", "coordinates": [ 33.8415, -14.14731 ] } },
{ "type": "Feature", "properties": { "TYPE": "Dispensary", "NAME": "Chagunda", "DISTRICT": "Salima", "ROAD_ACCES": "Earth Poor" }, "geometry": { "type": "Point", "coordinates": [ 34.36714, -13.88042 ] } },
{ "type": "Feature", "properties": { "TYPE": "Health Centre", "NAME": "Chakhaza", "DISTRICT": "Dowa", "ROAD_ACCES": "Earth Fair" }, "geometry": { "type": "Point", "coordinates": [ 33.64683, -13.44431 ] } },
{ "type": "Feature", "properties": { "TYPE": "Health Centre", "NAME": "Chamama", "DISTRICT": "Kasungu", "ROAD_ACCES": "Earth Fair" }, "geometry": { "type": "Point", "coordinates": [ 33.77686, -12.92431 ] } },
{ "type": "Feature", "properties": { "TYPE": "Dispensary", "NAME": "Chamba", "DISTRICT": "Machinga", "ROAD_ACCES": "Gravel" }, "geometry": { "type": "Point", "coordinates": [ 35.42136, -15.20236 ] } },
{ "type": "Feature", "properties": { "TYPE": "Dispensary", "NAME": "Chamba", "DISTRICT": "Zomba", "ROAD_ACCES": "Earth Fair" }, "geometry": { "type": "Point", "coordinates": [ 35.51647, -15.46567 ] } },
{ "type": "Feature", "properties": { "TYPE": "Dispensary", "NAME": "Chamwabvi", "DISTRICT": "Kasungu", "ROAD_ACCES": "Earth Fair" }, "geometry": { "type": "Point", "coordinates": [ 33.68531, -13.10758 ] } },
{ "type": "Feature", "properties": { "TYPE": "Health Centre", "NAME": "Chang'ambika", "DISTRICT": "Chikwawa", "ROAD_ACCES": "Gravel" }, "geometry": { "type": "Point", "coordinates": [ 34.30536, -15.80294 ] } },
{ "type": "Feature", "properties": { "TYPE": "Health Centre", "NAME": "Chankhungu", "DISTRICT": "Dowa", "ROAD_ACCES": "Tarmac" }, "geometry": { "type": "Point", "coordinates": [ 34.01469, -13.765 ] } },
{ "type": "Feature", "properties": { "TYPE": "Health Centre", "NAME": "Chapananga", "DISTRICT": "Chikwawa", "ROAD_ACCES": "Gravel" }, "geometry": { "type": "Point", "coordinates": [ 34.45111, -15.97111 ] } },
{ "type": "Feature", "properties": { "TYPE": "Health Centre", "NAME": "Chapwaila", "DISTRICT": "Chikwawa", "ROAD_ACCES": "Earth Fair" }, "geometry": { "type": "Point", "coordinates": [ 34.78194, -16.39889 ] } },
{ "type": "Feature", "properties": { "TYPE": "Dispensary", "NAME": "Chichiri Prison", "DISTRICT": "Blantyre", "ROAD_ACCES": "Gravel" }, "geometry": { "type": "Point", "coordinates": [ 35.03264, -15.80597 ] } },
{ "type": "Feature", "properties": { "TYPE": "Health Centre", "NAME": "Chiendausiku", "DISTRICT": "Balaka", "ROAD_ACCES": "Tarmac" }, "geometry": { "type": "Point", "coordinates": [ 35.07644, -15.01861 ] } },
{ "type": "Feature", "properties": { "TYPE": "Health Centre", "NAME": "Chifunga", "DISTRICT": "Mwanza", "ROAD_ACCES": "Earth Fair" }, "geometry": { "type": "Point", "coordinates": [ 34.70972, -15.62164 ] } },
{ "type": "Feature", "properties": { "TYPE": "Health Centre", "NAME": "Chikande", "DISTRICT": "Ntcheu", "ROAD_ACCES": "Earth Fair" }, "geometry": { "type": "Point", "coordinates": [ 34.90753, -14.77281 ] } },
{ "type": "Feature", "properties": { "TYPE": "Health Centre", "NAME": "Chikowa", "DISTRICT": "Lilongwe", "ROAD_ACCES": "Earth Poor" }, "geometry": { "type": "Point", "coordinates": [ 33.45819, -13.72947 ] } },
{ "type": "Feature", "properties": { "TYPE": "Health Centre", "NAME": "Chikuse", "DISTRICT": "Dedza", "ROAD_ACCES": "Earth Fair" }, "geometry": { "type": "Point", "coordinates": [ 34.31869, -14.1505 ] } },
{ "type": "Feature", "properties": { "TYPE": "District Hospital", "NAME": "Chikwawa", "DISTRICT": "Chikwawa", "ROAD_ACCES": "Gravel" }, "geometry": { "type": "Point", "coordinates": [ 34.79275, -16.0235 ] } },
{ "type": "Feature", "properties": { "TYPE": "Health Centre", "NAME": "Chikweo", "DISTRICT": "Machinga", "ROAD_ACCES": "Earth Fair" }, "geometry": { "type": "Point", "coordinates": [ 35.66819, -14.76461 ] } },
{ "type": "Feature", "properties": { "TYPE": "Health Centre", "NAME": "Chikwina", "DISTRICT": "Nkhata Bay", "ROAD_ACCES": "Earth Fair" }, "geometry": { "type": "Point", "coordinates": [ 34.16953, -11.39708 ] } },
{ "type": "Feature", "properties": { "TYPE": "Health Centre", "NAME": "Chileka", "DISTRICT": "Lilongwe", "ROAD_ACCES": "Tarmac" }, "geometry": { "type": "Point", "coordinates": [ 33.38564, -14.02122 ] } },
{ "type": "Feature", "properties": { "TYPE": "Health Centre", "NAME": "Chileka", "DISTRICT": "Blantyre", "ROAD_ACCES": "Tarmac" }, "geometry": { "type": "Point", "coordinates": [ 34.97033, -15.68233 ] } },
{ "type": "Feature", "properties": { "TYPE": "Health Centre", "NAME": "Chilobwe/Majiga", "DISTRICT": "Lilongwe", "ROAD_ACCES": "Earth Fair" }, "geometry": { "type": "Point", "coordinates": [ 33.37442, -13.85467 ] } },
{ "type": "Feature", "properties": { "TYPE": "Health Centre", "NAME": "Chilomoni", "DISTRICT": "Blantyre", "ROAD_ACCES": "Gravel" }, "geometry": { "type": "Point", "coordinates": [ 34.9815, -15.77128 ] } },
{ "type": "Feature", "properties": { "TYPE": "Rural Hospital", "NAME": "Chilumba", "DISTRICT": "Karonga", "ROAD_ACCES": "Tarmac" }, "geometry": { "type": "Point", "coordinates": [ 34.25156, -10.43236 ] } },
{ "type": "Feature", "properties": { "TYPE": "Health Centre", "NAME": "Chimaliro", "DISTRICT": "Thyolo", "ROAD_ACCES": "Earth Fair" }, "geometry": { "type": "Point", "coordinates": [ 35.18279, -15.9778 ] } },
{ "type": "Feature", "properties": { "TYPE": "Health Centre", "NAME": "Chimbalanga", "DISTRICT": "Lilongwe", "ROAD_ACCES": "Earth Poor" }, "geometry": { "type": "Point", "coordinates": [ 34.12411, -13.93633 ] } },
{ "type": "Feature", "properties": { "TYPE": "Health Centre", "NAME": "Chimembe", "DISTRICT": "Blantyre", "ROAD_ACCES": "Gravel" }, "geometry": { "type": "Point", "coordinates": [ 34.88533, -15.77736 ] } },
{ "type": "Feature", "properties": { "TYPE": "Health Centre", "NAME": "Chimoto", "DISTRICT": "Dedza", "ROAD_ACCES": "Earth Fair" }, "geometry": { "type": "Point", "coordinates": [ 34.00997, -14.44281 ] } },
{ "type": "Feature", "properties": { "TYPE": "Health Centre", "NAME": "Chingale", "DISTRICT": "Zomba", "ROAD_ACCES": "Gravel" }, "geometry": { "type": "Point", "coordinates": [ 35.18056, -15.39692 ] } },
{ "type": "Feature", "properties": { "TYPE": "Health Centre", "NAME": "Ching'oma", "DISTRICT": "Nsanje", "ROAD_ACCES": "Gravel" }, "geometry": { "type": "Point", "coordinates": [ 35.10933, -16.99931 ] } },
{ "type": "Feature", "properties": { "TYPE": "Health Centre", "NAME": "Chingoni", "DISTRICT": "Dedza", "ROAD_ACCES": "Earth Fair" }, "geometry": { "type": "Point", "coordinates": [ 34.26661, -14.323 ] } },
{ "type": "Feature", "properties": { "TYPE": "Health Centre", "NAME": "Chinguluwe", "DISTRICT": "Ntchisi", "ROAD_ACCES": "Earth Fair" }, "geometry": { "type": "Point", "coordinates": [ 33.86847, -13.26153 ] } },
{ "type": "Feature", "properties": { "TYPE": "Health Centre", "NAME": "Chinguluwe", "DISTRICT": "Salima", "ROAD_ACCES": "Earth Poor" }, "geometry": { "type": "Point", "coordinates": [ 34.385, -13.66472 ] } },
{ "type": "Feature", "properties": { "TYPE": "Health Centre", "NAME": "Chinkhwiri", "DISTRICT": "Dowa", "ROAD_ACCES": "Earth Fair" }, "geometry": { "type": "Point", "coordinates": [ 33.72078, -13.38558 ] } },
{ "type": "Feature", "properties": { "TYPE": "Rural Hospital", "NAME": "Chintheche", "DISTRICT": "Nkhata Bay", "ROAD_ACCES": "Earth Poor" }, "geometry": { "type": "Point", "coordinates": [ 34.16903, -11.82614 ] } },
{ "type": "Feature", "properties": { "TYPE": "Health Centre", "NAME": "Chioshya", "DISTRICT": "Mchinji", "ROAD_ACCES": "Earth Fair" }, "geometry": { "type": "Point", "coordinates": [ 33.17514, -13.79597 ] } },
{ "type": "Feature", "properties": { "TYPE": "Health Centre", "NAME": "Chipoka", "DISTRICT": "Salima", "ROAD_ACCES": "Tarmac" }, "geometry": { "type": "Point", "coordinates": [ 34.51556, -13.9895 ] } },
{ "type": "Feature", "properties": { "TYPE": "Health Centre", "NAME": "Chipumi", "DISTRICT": "Mchinji", "ROAD_ACCES": "Tarmac" }, "geometry": { "type": "Point", "coordinates": [ 33.08156, -13.62531 ] } },
{ "type": "Feature", "properties": { "TYPE": "District Hospital", "NAME": "Chiradzulu", "DISTRICT": "Chiradzulu", "ROAD_ACCES": "Gravel" }, "geometry": { "type": "Point", "coordinates": [ 35.18756, -15.69708 ] } },
{ "type": "Feature", "properties": { "TYPE": "Health Centre", "NAME": "Chisala", "DISTRICT": "Nkhata Bay", "ROAD_ACCES": "Earth Fair" }, "geometry": { "type": "Point", "coordinates": [ 34.12206, -11.57458 ] } },
{ "type": "Feature", "properties": { "TYPE": "Health Centre", "NAME": "Chisepo", "DISTRICT": "Dowa", "ROAD_ACCES": "Earth Fair" }, "geometry": { "type": "Point", "coordinates": [ 33.47039, -13.63475 ] } },
{ "type": "Feature", "properties": { "TYPE": "Dispensary", "NAME": "Chisinga", "DISTRICT": "Kasungu", "ROAD_ACCES": "Earth Fair" }, "geometry": { "type": "Point", "coordinates": [ 33.32692, -12.62203 ] } },
{ "type": "Feature", "properties": { "TYPE": "Health Centre", "NAME": "Chisitu", "DISTRICT": "Mulanje", "ROAD_ACCES": "Earth Fair" }, "geometry": { "type": "Point", "coordinates": [ 35.43292, -16.00097 ] } },
{ "type": "Feature", "properties": { "TYPE": "Health Centre", "NAME": "Chitedze", "DISTRICT": "Lilongwe", "ROAD_ACCES": "Tarmac" }, "geometry": { "type": "Point", "coordinates": [ 33.64528, -13.97677 ] } },
{ "type": "Feature", "properties": { "TYPE": "Health Centre", "NAME": "Chitekesa", "DISTRICT": "Phalombe", "ROAD_ACCES": "Earth Poor" }, "geometry": { "type": "Point", "coordinates": [ 35.57275, -15.55189 ] } },
{ "type": "Feature", "properties": { "TYPE": "Health Centre", "NAME": "Chitera", "DISTRICT": "Chiradzulu", "ROAD_ACCES": "Gravel" }, "geometry": { "type": "Point", "coordinates": [ 35.12289, -15.60667 ] } },
{ "type": "Feature", "properties": { "TYPE": "Health Centre", "NAME": "Chitheka", "DISTRICT": "Nkhata Bay", "ROAD_ACCES": "Earth Fair" }, "geometry": { "type": "Point", "coordinates": [ 33.95142, -11.70178 ] } },
{ "type": "Feature", "properties": { "TYPE": "District Hospital", "NAME": "Chitipa", "DISTRICT": "Chitipa", "ROAD_ACCES": "Earth Fair" }, "geometry": { "type": "Point", "coordinates": [ 33.26533, -9.70197 ] } },
{ "type": "Feature", "properties": { "TYPE": "Health Centre", "NAME": "Chitowo", "DISTRICT": "Dedza", "ROAD_ACCES": "Earth Poor" }, "geometry": { "type": "Point", "coordinates": [ 34.04042, -14.22392 ] } },
{ "type": "Feature", "properties": { "TYPE": "Health Centre", "NAME": "Chiumbangame", "DISTRICT": "Mangochi", "ROAD_ACCES": "Earth Fair" }, "geometry": { "type": "Point", "coordinates": [ 35.55522, -14.31908 ] } },
{ "type": "Feature", "properties": { "TYPE": "Health Centre", "NAME": "Chiwankango", "DISTRICT": "Mchinji", "ROAD_ACCES": "Earth Fair" }, "geometry": { "type": "Point", "coordinates": [ 33.01556, -13.41556 ] } },
{ "type": "Feature", "properties": { "TYPE": "Health Centre", "NAME": "Choma", "DISTRICT": "Mzimba", "ROAD_ACCES": "Earth Poor" }, "geometry": { "type": "Point", "coordinates": [ 33.99122, -11.31289 ] } },
{ "type": "Feature", "properties": { "TYPE": "Health Centre", "NAME": "Chulu", "DISTRICT": "Kasungu", "ROAD_ACCES": "Earth Fair" }, "geometry": { "type": "Point", "coordinates": [ 33.30828, -12.82186 ] } },
{ "type": "Feature", "properties": { "TYPE": "Health Centre", "NAME": "Chunjiza", "DISTRICT": "Lilongwe", "ROAD_ACCES": "Earth Fair" }, "geometry": { "type": "Point", "coordinates": [ 33.66864, -14.40553 ] } },
{ "type": "Feature", "properties": { "TYPE": "District Hospital", "NAME": "Dedza", "DISTRICT": "Dedza", "ROAD_ACCES": "Tarmac" }, "geometry": { "type": "Point", "coordinates": [ 34.33354, -14.38359 ] } },
{ "type": "Feature", "properties": { "TYPE": "Health Centre", "NAME": "Dolo", "DISTRICT": "Chikwawa", "ROAD_ACCES": "Earth Fair" }, "geometry": { "type": "Point", "coordinates": [ 34.92444, -16.55361 ] } },
{ "type": "Feature", "properties": { "TYPE": "Rural Hospital", "NAME": "Domasi", "DISTRICT": "Zomba", "ROAD_ACCES": "Tarmac" }, "geometry": { "type": "Point", "coordinates": [ 35.39906, -15.28083 ] } },
{ "type": "Feature", "properties": { "TYPE": "Dispensary", "NAME": "Doriko", "DISTRICT": "Ntcheu", "ROAD_ACCES": "Earth Fair" }, "geometry": { "type": "Point", "coordinates": [ 34.59072, -15.08225 ] } },
{ "type": "Feature", "properties": { "TYPE": "District Hospital", "NAME": "Dowa", "DISTRICT": "Dowa", "ROAD_ACCES": "Earth Fair" }, "geometry": { "type": "Point", "coordinates": [ 33.93689, -13.65508 ] } },
{ "type": "Feature", "properties": { "TYPE": "Rural Hospital", "NAME": "Dwambadzi", "DISTRICT": "Nkhotakota", "ROAD_ACCES": "Tarmac" }, "geometry": { "type": "Point", "coordinates": [ 33.99214, -12.234 ] } },
{ "type": "Feature", "properties": { "TYPE": "Dispensary", "NAME": "Dwangwa", "DISTRICT": "Kasungu", "ROAD_ACCES": "Tarmac" }, "geometry": { "type": "Point", "coordinates": [ 33.454, -12.88164 ] } },
{ "type": "Feature", "properties": { "TYPE": "Clinic", "NAME": "Dzaleka Refugee Camp", "DISTRICT": "Dowa", "ROAD_ACCES": "Earth Fair" }, "geometry": { "type": "Point", "coordinates": [ 33.86817, -13.66478 ] } },
{ "type": "Feature", "properties": { "TYPE": "Health Centre", "NAME": "Dziwe", "DISTRICT": "Blantyre", "ROAD_ACCES": "Gravel" }, "geometry": { "type": "Point", "coordinates": [ 34.88053, -15.56353 ] } },
{ "type": "Feature", "properties": { "TYPE": "Dispensary", "NAME": "Dzonzi Mvai", "DISTRICT": "Ntcheu", "ROAD_ACCES": "Earth Poor" }, "geometry": { "type": "Point", "coordinates": [ 34.64356, -14.94872 ] } },
{ "type": "Feature", "properties": { "TYPE": "Health Centre", "NAME": "Dzoole", "DISTRICT": "Dowa", "ROAD_ACCES": "Earth Fair" }, "geometry": { "type": "Point", "coordinates": [ 33.66194, -13.58522 ] } },
{ "type": "Feature", "properties": { "TYPE": "Dispensary", "NAME": "Dzunje", "DISTRICT": "Ntcheu", "ROAD_ACCES": "Earth Poor" }, "geometry": { "type": "Point", "coordinates": [ 34.73597, -14.80783 ] } },
{ "type": "Feature", "properties": { "TYPE": "Rural Hospital", "NAME": "Edingeni", "DISTRICT": "Mzimba", "ROAD_ACCES": "Earth Fair" }, "geometry": { "type": "Point", "coordinates": [ 33.31278, -12.04083 ] } },
{ "type": "Feature", "properties": { "TYPE": "Dispensary", "NAME": "Ehehleni", "DISTRICT": "Mzimba", "ROAD_ACCES": "Earth Fair" }, "geometry": { "type": "Point", "coordinates": [ 33.58919, -12.26211 ] } },
{ "type": "Feature", "properties": { "TYPE": "Dispensary", "NAME": "Ekwaiweni", "DISTRICT": "Mzimba", "ROAD_ACCES": "Earth Poor" }, "geometry": { "type": "Point", "coordinates": [ 33.89772, -11.42317 ] } },
{ "type": "Feature", "properties": { "TYPE": "Health Centre", "NAME": "Emsizini", "DISTRICT": "Mzimba", "ROAD_ACCES": "Earth Fair" }, "geometry": { "type": "Point", "coordinates": [ 33.82497, -11.44428 ] } },
{ "type": "Feature", "properties": { "TYPE": "Health Centre", "NAME": "Euthini", "DISTRICT": "Mzimba", "ROAD_ACCES": "Earth Fair" }, "geometry": { "type": "Point", "coordinates": [ 33.41925, -11.45836 ] } },
{ "type": "Feature", "properties": { "TYPE": "Health Centre", "NAME": "Fulirwa", "DISTRICT": "Karonga", "ROAD_ACCES": "Gravel Good" }, "geometry": { "type": "Point", "coordinates": [ 34.11444, -10.44778 ] } },
{ "type": "Feature", "properties": { "TYPE": "Health Centre", "NAME": "Gamanga", "DISTRICT": "Salima", "ROAD_ACCES": "Gravel" }, "geometry": { "type": "Point", "coordinates": [ 34.55914, -13.84678 ] } },
{ "type": "Feature", "properties": { "TYPE": "Clinic", "NAME": "Gogo LEA PVT", "DISTRICT": "Kasungu", "ROAD_ACCES": "Tarmac" }, "geometry": { "type": "Point", "coordinates": [ 33.48906, -12.70056 ] } },
{ "type": "Feature", "properties": { "TYPE": "Dispensary", "NAME": "Gogode", "DISTRICT": "Kasungu", "ROAD_ACCES": "Earth Fair" }, "geometry": { "type": "Point", "coordinates": [ 33.56153, -12.88783 ] } },
{ "type": "Feature", "properties": { "TYPE": "Health Centre", "NAME": "Gola", "DISTRICT": "Chikwawa", "ROAD_ACCES": "Soil road - Poor" }, "geometry": { "type": "Point", "coordinates": [ 34.29931, -15.88397 ] } },
{ "type": "Feature", "properties": { "TYPE": "Health Centre", "NAME": "Golomoti", "DISTRICT": "Salima", "ROAD_ACCES": "Earth Fair" }, "geometry": { "type": "Point", "coordinates": [ 34.60089, -14.41286 ] } },
{ "type": "Feature", "properties": { "TYPE": "Dispensary", "NAME": "Hara", "DISTRICT": "Karonga", "ROAD_ACCES": "Earth Fair" }, "geometry": { "type": "Point", "coordinates": [ 34.16931, -10.48878 ] } },
{ "type": "Feature", "properties": { "TYPE": "Health Centre", "NAME": "Hoho", "DISTRICT": "Mzimba", "ROAD_ACCES": "Earth Fair" }, "geometry": { "type": "Point", "coordinates": [ 33.68653, -12.27819 ] } },
{ "type": "Feature", "properties": { "TYPE": "Health Centre", "NAME": "Iponga", "DISTRICT": "Karonga", "ROAD_ACCES": "Earth Fair" }, "geometry": { "type": "Point", "coordinates": [ 33.8125, -9.64583 ] } },
{ "type": "Feature", "properties": { "TYPE": "Health Centre", "NAME": "Jalasi", "DISTRICT": "Mangochi", "ROAD_ACCES": "Earth Fair" }, "geometry": { "type": "Point", "coordinates": [ 35.44253, -14.36297 ] } },
{ "type": "Feature", "properties": { "TYPE": "Health Centre", "NAME": "Jalawe", "DISTRICT": "Rumphi", "ROAD_ACCES": "Earth Good" }, "geometry": { "type": "Point", "coordinates": [ 34.16139, -10.73056 ] } },
{ "type": "Feature", "properties": { "TYPE": "Health Centre", "NAME": "Jenda", "DISTRICT": "Mzimba", "ROAD_ACCES": "Tarmac" }, "geometry": { "type": "Point", "coordinates": [ 33.54753, -12.35208 ] } },
{ "type": "Feature", "properties": { "TYPE": "Rural Hospital", "NAME": "Kabudula", "DISTRICT": "Lilongwe", "ROAD_ACCES": "Earth Fair" }, "geometry": { "type": "Point", "coordinates": [ 33.44864, -13.81967 ] } },
{ "type": "Feature", "properties": { "TYPE": "Health Centre", "NAME": "Kabuwa", "DISTRICT": "Mzimba", "ROAD_ACCES": null }, "geometry": { "type": "Point", "coordinates": [ 34.07406, -12.517 ] } },
{ "type": "Feature", "properties": { "TYPE": "Health Centre", "NAME": "Kabwafu", "DISTRICT": "Mzimba", "ROAD_ACCES": "Earth Fair" }, "geometry": { "type": "Point", "coordinates": [ 33.52581, -11.30864 ] } },
{ "type": "Feature", "properties": { "TYPE": "Health Centre", "NAME": "Kachere", "DISTRICT": "Nkhata Bay", "ROAD_ACCES": "Tarmac" }, "geometry": { "type": "Point", "coordinates": [ 34.04978, -12.00322 ] } },
{ "type": "Feature", "properties": { "TYPE": "Health Centre", "NAME": "Kafere", "DISTRICT": "Dedza", "ROAD_ACCES": "Earth Poor" }, "geometry": { "type": "Point", "coordinates": [ 33.71767, -14.43172 ] } },
{ "type": "Feature", "properties": { "TYPE": "Health Centre", "NAME": "Kaigwazanga", "DISTRICT": "Mchinji", "ROAD_ACCES": "Earth Fair" }, "geometry": { "type": "Point", "coordinates": [ 32.92831, -13.62681 ] } },
{ "type": "Feature", "properties": { "TYPE": "Health Centre", "NAME": "Kakoma", "DISTRICT": "Chikwawa", "ROAD_ACCES": "Gravel" }, "geometry": { "type": "Point", "coordinates": [ 34.62361, -16.09814 ] } },
{ "type": "Feature", "properties": { "TYPE": "Dispensary", "NAME": "Kalembo", "DISTRICT": "Balaka", "ROAD_ACCES": "Earth Fair" }, "geometry": { "type": "Point", "coordinates": [ 35.17619, -14.85814 ] } },
{ "type": "Feature", "properties": { "TYPE": "Dispensary", "NAME": "Kalinde", "DISTRICT": "Phalombe", "ROAD_ACCES": "Earth Poor" }, "geometry": { "type": "Point", "coordinates": [ 35.72844, -15.67206 ] } },
{ "type": "Feature", "properties": { "TYPE": "Health Centre", "NAME": "Kalulu", "DISTRICT": "Dedza", "ROAD_ACCES": "Soil Bad" }, "geometry": { "type": "Point", "coordinates": [ 34.19753, -13.99694 ] } },
{ "type": "Feature", "properties": { "TYPE": "Rural Hospital", "NAME": "Kaluluma", "DISTRICT": "Kasungu", "ROAD_ACCES": "Earth Fair" }, "geometry": { "type": "Point", "coordinates": [ 33.51883, -12.58119 ] } },
{ "type": "Feature", "properties": { "TYPE": "Health Centre", "NAME": "Kambenje", "DISTRICT": "Mulanje", "ROAD_ACCES": "Earth Fair" }, "geometry": { "type": "Point", "coordinates": [ 35.564, -15.85311 ] } },
{ "type": "Feature", "properties": { "TYPE": "Health Centre", "NAME": "Kamboni", "DISTRICT": "Kasungu", "ROAD_ACCES": "Earth Fair" }, "geometry": { "type": "Point", "coordinates": [ 33.18172, -13.30758 ] } },
{ "type": "Feature", "properties": { "TYPE": "Health Centre", "NAME": "Kameme", "DISTRICT": "Chitipa", "ROAD_ACCES": "Earth Fair" }, "geometry": { "type": "Point", "coordinates": [ 33.13122, -9.54414 ] } },
{ "type": "Feature", "properties": { "TYPE": "Health Centre", "NAME": "Kamphata", "DISTRICT": "Nsanje", "ROAD_ACCES": "Gravel" }, "geometry": { "type": "Point", "coordinates": [ 35.21642, -17.04689 ] } },
{ "type": "Feature", "properties": { "TYPE": "Health Centre", "NAME": "Kamsonga", "DISTRICT": "Ntchisi", "ROAD_ACCES": "Earth Fair" }, "geometry": { "type": "Point", "coordinates": [ 33.79944, -13.27406 ] } },
{ "type": "Feature", "properties": { "TYPE": "Health Centre", "NAME": "Kamteteka", "DISTRICT": "Mzimba", "ROAD_ACCES": "Earth Fair" }, "geometry": { "type": "Point", "coordinates": [ 33.35925, -11.83678 ] } },
{ "type": "Feature", "properties": { "TYPE": "Health Centre", "NAME": "Kamwe", "DISTRICT": "Rumphi", "ROAD_ACCES": "Earth Poor" }, "geometry": { "type": "Point", "coordinates": [ 33.78889, -11.10306 ] } },
{ "type": "Feature", "properties": { "TYPE": "Dispensary", "NAME": "Kaname/Mdeza", "DISTRICT": "Dedza", "ROAD_ACCES": "Earth Fair" }, "geometry": { "type": "Point", "coordinates": [ 33.96764, -14.23542 ] } },
{ "type": "Feature", "properties": { "TYPE": "Health Centre", "NAME": "Kande", "DISTRICT": "Nkhata Bay", "ROAD_ACCES": "Tarmac" }, "geometry": { "type": "Point", "coordinates": [ 34.10942, -11.93567 ] } },
{ "type": "Feature", "properties": { "TYPE": "Dispensary", "NAME": "Kandeu", "DISTRICT": "Ntcheu", "ROAD_ACCES": "Earth Poor" }, "geometry": { "type": "Point", "coordinates": [ 34.61625, -14.60303 ] } },
{ "type": "Feature", "properties": { "TYPE": "Health Centre", "NAME": "Kangolwa", "DISTRICT": "Ntchisi", "ROAD_ACCES": "Earth Fair" }, "geometry": { "type": "Point", "coordinates": [ 34.07039, -13.37033 ] } },
{ "type": "Feature", "properties": { "TYPE": "Health Centre", "NAME": "Kang'oma", "DISTRICT": "Lilongwe", "ROAD_ACCES": "Earth Fair" }, "geometry": { "type": "Point", "coordinates": [ 33.88192, -13.97864 ] } },
{ "type": "Feature", "properties": { "TYPE": "Health Centre", "NAME": "Kanyimbi", "DISTRICT": "Nsanje", "ROAD_ACCES": "Gravel" }, "geometry": { "type": "Point", "coordinates": [ 34.967, -16.69464 ] } },
{ "type": "Feature", "properties": { "TYPE": "Dispensary", "NAME": "Kaombe", "DISTRICT": "Ntchisi", "ROAD_ACCES": "Earth Fair" }, "geometry": { "type": "Point", "coordinates": [ 33.964, -13.22211 ] } },
{ "type": "Feature", "properties": { "TYPE": "Health Centre", "NAME": "Kapanga", "DISTRICT": "Mchinji", "ROAD_ACCES": "Earth Fair" }, "geometry": { "type": "Point", "coordinates": [ 33.30631, -14.06014 ] } },
{ "type": "Feature", "properties": { "TYPE": "Health Centre", "NAME": "Kapelula", "DISTRICT": "Kasungu", "ROAD_ACCES": "Earth Fair" }, "geometry": { "type": "Point", "coordinates": [ 33.87094, -12.87775 ] } },
{ "type": "Feature", "properties": { "TYPE": "Health Centre", "NAME": "Kapenda", "DISTRICT": "Chitipa", "ROAD_ACCES": "Earth Poor" }, "geometry": { "type": "Point", "coordinates": [ 33.24908, -9.49456 ] } },
{ "type": "Feature", "properties": { "TYPE": "Health Centre", "NAME": "Kapeni", "DISTRICT": "Ntcheu", "ROAD_ACCES": "Earth Poor" }, "geometry": { "type": "Point", "coordinates": [ 34.77072, -15.00461 ] } },
{ "type": "Feature", "properties": { "TYPE": "Rural Hospital", "NAME": "Kaphuka", "DISTRICT": "Dedza", "ROAD_ACCES": "Soil Bad" }, "geometry": { "type": "Point", "coordinates": [ 34.18947, -14.15975 ] } },
{ "type": "Feature", "properties": { "TYPE": "Rural Hospital", "NAME": "Kaporo", "DISTRICT": "Karonga", "ROAD_ACCES": "Earth Fair" }, "geometry": { "type": "Point", "coordinates": [ 33.87456, -9.76744 ] } },
{ "type": "Feature", "properties": { "TYPE": "Health Centre", "NAME": "Kapyanga", "DISTRICT": "Kasungu", "ROAD_ACCES": "Gravel Good" }, "geometry": { "type": "Point", "coordinates": [ 33.79306, -12.8 ] } },
{ "type": "Feature", "properties": { "TYPE": "District Hospital", "NAME": "Karonga", "DISTRICT": "Karonga", "ROAD_ACCES": "Tarmac" }, "geometry": { "type": "Point", "coordinates": [ 33.91139, -9.955 ] } },
{ "type": "Feature", "properties": { "TYPE": "Hospital", "NAME": "Karonga old", "DISTRICT": "Karonga", "ROAD_ACCES": "Tarmac" }, "geometry": { "type": "Point", "coordinates": [ 33.94, -9.93217 ] } },
{ "type": "Feature", "properties": { "TYPE": "Health Centre", "NAME": "Kasinje", "DISTRICT": "Ntcheu", "ROAD_ACCES": "Tarmac" }, "geometry": { "type": "Point", "coordinates": [ 34.67658, -14.52342 ] } },
{ "type": "Feature", "properties": { "TYPE": "Dispensary", "NAME": "Kasinthula", "DISTRICT": "Chikwawa", "ROAD_ACCES": "Gravel" }, "geometry": { "type": "Point", "coordinates": [ 34.81656, -16.07422 ] } },
{ "type": "Feature", "properties": { "TYPE": "Health Centre", "NAME": "Kasoba", "DISTRICT": "Karonga", "ROAD_ACCES": "Earth Fair" }, "geometry": { "type": "Point", "coordinates": [ 33.87028, -9.87361 ] } },
{ "type": "Feature", "properties": { "TYPE": "District Hospital", "NAME": "Kasungu", "DISTRICT": "Kasungu", "ROAD_ACCES": "Tarmac" }, "geometry": { "type": "Point", "coordinates": [ 33.48053, -13.03611 ] } },
{ "type": "Feature", "properties": { "TYPE": "Health Centre", "NAME": "Katchale", "DISTRICT": "Lilongwe", "ROAD_ACCES": "Earth Fair" }, "geometry": { "type": "Point", "coordinates": [ 33.908, -14.28358 ] } },
{ "type": "Feature", "properties": { "TYPE": "Health Centre", "NAME": "Katimbira", "DISTRICT": "Nkhotakota", "ROAD_ACCES": "Gravel" }, "geometry": { "type": "Point", "coordinates": [ 34.21761, -12.75744 ] } },
{ "type": "Feature", "properties": { "TYPE": "Health Centre", "NAME": "Katsekera", "DISTRICT": "Ntcheu", "ROAD_ACCES": "Gravel" }, "geometry": { "type": "Point", "coordinates": [ 34.641, -15.03339 ] } },
{ "type": "Feature", "properties": { "TYPE": "Health Centre", "NAME": "Katulu", "DISTRICT": "Mangochi", "ROAD_ACCES": "Earth Fair" }, "geometry": { "type": "Point", "coordinates": [ 35.44497, -14.18025 ] } },
{ "type": "Feature", "properties": { "TYPE": "Health Centre", "NAME": "Kawale", "DISTRICT": "Lilongwe", "ROAD_ACCES": "Tarmac" }, "geometry": { "type": "Point", "coordinates": [ 33.798, -13.99167 ] } },
{ "type": "Feature", "properties": { "TYPE": "Health Centre", "NAME": "Kawinga", "DISTRICT": "Machinga", "ROAD_ACCES": "Earth Fair" }, "geometry": { "type": "Point", "coordinates": [ 35.57203, -14.85478 ] } },
{ "type": "Feature", "properties": { "TYPE": "Health Centre", "NAME": "Kayembe", "DISTRICT": "Dowa", "ROAD_ACCES": "Earth Fair" }, "geometry": { "type": "Point", "coordinates": [ 33.58306, -13.64267 ] } },
{ "type": "Feature", "properties": { "TYPE": "Maternity", "NAME": "Kazyozyo/Sakhuta", "DISTRICT": "Mchinji", "ROAD_ACCES": null }, "geometry": { "type": "Point", "coordinates": [ 32.86378, -13.57553 ] } },
{ "type": "Feature", "properties": { "TYPE": "Health Centre", "NAME": "Khola", "DISTRICT": "Kasungu", "ROAD_ACCES": "Earth Fair" }, "geometry": { "type": "Point", "coordinates": [ 33.31725, -13.34414 ] } },
{ "type": "Feature", "properties": { "TYPE": "Health Centre", "NAME": "Khombedza", "DISTRICT": "Salima", "ROAD_ACCES": "Tarmac" }, "geometry": { "type": "Point", "coordinates": [ 34.31111, -13.59678 ] } },
{ "type": "Feature", "properties": { "TYPE": "Dispensary", "NAME": "Khondowe", "DISTRICT": "Nkhata Bay", "ROAD_ACCES": null }, "geometry": { "type": "Point", "coordinates": [ 34.16667, -10.59167 ] } },
{ "type": "Feature", "properties": { "TYPE": "Health Centre", "NAME": "Khosolo", "DISTRICT": "Mzimba", "ROAD_ACCES": "Earth Poor" }, "geometry": { "type": "Point", "coordinates": [ 33.79031, -12.44031 ] } },
{ "type": "Feature", "properties": { "TYPE": "Health Centre", "NAME": "Khuwi", "DISTRICT": "Ntchisi", "ROAD_ACCES": "Earth Fair" }, "geometry": { "type": "Point", "coordinates": [ 33.83394, -13.43181 ] } },
{ "type": "Feature", "properties": { "TYPE": "Health Centre", "NAME": "Kochilila", "DISTRICT": "Mchinji", "ROAD_ACCES": "Tarmac" }, "geometry": { "type": "Point", "coordinates": [ 33.04322, -13.78208 ] } },
{ "type": "Feature", "properties": { "TYPE": "Health Centre", "NAME": "Kunenekude", "DISTRICT": "Mwanza", "ROAD_ACCES": "Gravel" }, "geometry": { "type": "Point", "coordinates": [ 34.49133, -15.46467 ] } },
{ "type": "Feature", "properties": { "TYPE": "Health Centre", "NAME": "Lambulira", "DISTRICT": "Zomba", "ROAD_ACCES": "Earth Poor" }, "geometry": { "type": "Point", "coordinates": [ 35.33683, -15.48356 ] } },
{ "type": "Feature", "properties": { "TYPE": "Dispensary", "NAME": "Lemwe", "DISTRICT": "Lilongwe", "ROAD_ACCES": "Tarmac" }, "geometry": { "type": "Point", "coordinates": [ 33.34328, -13.88525 ] } },
{ "type": "Feature", "properties": { "TYPE": "Dispensary", "NAME": "Lengwe", "DISTRICT": "Chikwawa", "ROAD_ACCES": "Earth Poor" }, "geometry": { "type": "Point", "coordinates": [ 34.83881, -16.28642 ] } },
{ "type": "Feature", "properties": { "TYPE": "Health Centre", "NAME": "Lifuwu", "DISTRICT": "Salima", "ROAD_ACCES": "Earth Poor" }, "geometry": { "type": "Point", "coordinates": [ 34.58878, -13.67922 ] } },
{ "type": "Feature", "properties": { "TYPE": "Health Centre", "NAME": "Likangala", "DISTRICT": "Zomba", "ROAD_ACCES": "Earth Fair" }, "geometry": { "type": "Point", "coordinates": [ 35.54447, -15.42783 ] } },
{ "type": "Feature", "properties": { "TYPE": "Central Hospital", "NAME": "Lilongwe", "DISTRICT": "Lilongwe", "ROAD_ACCES": "Tarmac" }, "geometry": { "type": "Point", "coordinates": [ 33.78586, -13.97686 ] } },
{ "type": "Feature", "properties": { "TYPE": "Health Centre", "NAME": "Limbe", "DISTRICT": "Blantyre", "ROAD_ACCES": "Tarmac" }, "geometry": { "type": "Point", "coordinates": [ 35.052, -15.81681 ] } },
{ "type": "Feature", "properties": { "TYPE": "Health Centre", "NAME": "Lirangwe", "DISTRICT": "Blantyre", "ROAD_ACCES": "Gravel" }, "geometry": { "type": "Point", "coordinates": [ 35.02975, -15.52939 ] } },
{ "type": "Feature", "properties": { "TYPE": "Health Centre", "NAME": "Liuzi", "DISTRICT": "Nkhata Bay", "ROAD_ACCES": "Tarmac" }, "geometry": { "type": "Point", "coordinates": [ 34.01581, -12.18961 ] } },
{ "type": "Feature", "properties": { "TYPE": "Health Centre", "NAME": "Lizulu", "DISTRICT": "Ntcheu", "ROAD_ACCES": "Gravel" }, "geometry": { "type": "Point", "coordinates": [ 34.46564, -14.51772 ] } },
{ "type": "Feature", "properties": { "TYPE": "Health Centre", "NAME": "Lobi", "DISTRICT": "Dedza", "ROAD_ACCES": "Earth Poor" }, "geometry": { "type": "Point", "coordinates": [ 34.07183, -14.39033 ] } },
{ "type": "Feature", "properties": { "TYPE": "Dispensary", "NAME": "Lojwa", "DISTRICT": "Kasungu", "ROAD_ACCES": "Tarmac" }, "geometry": { "type": "Point", "coordinates": [ 33.52944, -12.41892 ] } },
{ "type": "Feature", "properties": { "TYPE": "Health Centre", "NAME": "Lundu", "DISTRICT": "Blantyre", "ROAD_ACCES": "Gravel" }, "geometry": { "type": "Point", "coordinates": [ 35.01303, -15.42172 ] } },
{ "type": "Feature", "properties": { "TYPE": "Health Centre", "NAME": "Lungwena", "DISTRICT": "Mangochi", "ROAD_ACCES": "Earth Fair" }, "geometry": { "type": "Point", "coordinates": [ 35.24842, -14.24494 ] } },
{ "type": "Feature", "properties": { "TYPE": "Dispensary", "NAME": "Lusangazi", "DISTRICT": "Mzimba", "ROAD_ACCES": "Tarmac" }, "geometry": { "type": "Point", "coordinates": [ 33.94, -11.53258 ] } },
{ "type": "Feature", "properties": { "TYPE": "Health Centre", "NAME": "Luwani", "DISTRICT": "Mwanza", "ROAD_ACCES": "Gravel" }, "geometry": { "type": "Point", "coordinates": [ 34.74256, -15.47961 ] } },
{ "type": "Feature", "properties": { "TYPE": "District Hospital", "NAME": "Machinga", "DISTRICT": "Machinga", "ROAD_ACCES": "Tarmac" }, "geometry": { "type": "Point", "coordinates": [ 35.22614, -15.06222 ] } },
{ "type": "Feature", "properties": { "TYPE": "Health Centre", "NAME": "Madziabango", "DISTRICT": "Blantyre", "ROAD_ACCES": "Tarmac" }, "geometry": { "type": "Point", "coordinates": [ 34.91058, -15.96817 ] } },
{ "type": "Feature", "properties": { "TYPE": "Health Centre", "NAME": "Magaleta", "DISTRICT": "Mwanza", "ROAD_ACCES": "Gravel" }, "geometry": { "type": "Point", "coordinates": [ 34.63197, -15.54967 ] } },
{ "type": "Feature", "properties": { "TYPE": "Health Centre", "NAME": "Makanjira", "DISTRICT": "Mangochi", "ROAD_ACCES": "Earth Poor" }, "geometry": { "type": "Point", "coordinates": [ 35.04697, -13.71528 ] } },
{ "type": "Feature", "properties": { "TYPE": "Dispensary", "NAME": "Makata", "DISTRICT": "Blantyre", "ROAD_ACCES": "Gravel" }, "geometry": { "type": "Point", "coordinates": [ 35.07975, -15.63006 ] } },
{ "type": "Feature", "properties": { "TYPE": "Health Centre", "NAME": "Makhanga", "DISTRICT": "Nsanje", "ROAD_ACCES": "Gravel" }, "geometry": { "type": "Point", "coordinates": [ 35.17347, -16.52175 ] } },
{ "type": "Feature", "properties": { "TYPE": "Health Centre", "NAME": "Makhwira", "DISTRICT": "Chikwawa", "ROAD_ACCES": "Gravel" }, "geometry": { "type": "Point", "coordinates": [ 35.06056, -16.28694 ] } },
{ "type": "Feature", "properties": { "TYPE": "Health Centre", "NAME": "Makiyoni", "DISTRICT": "Salima", "ROAD_ACCES": "Gravel" }, "geometry": { "type": "Point", "coordinates": [ 34.19725, -13.58625 ] } },
{ "type": "Feature", "properties": { "TYPE": "Maternity", "NAME": "Makungwa", "DISTRICT": "Thyolo", "ROAD_ACCES": "Earth Fair" }, "geometry": { "type": "Point", "coordinates": [ 35.02614, -15.93947 ] } },
{ "type": "Feature", "properties": { "TYPE": "Health Centre", "NAME": "Makwapala", "DISTRICT": "Zomba", "ROAD_ACCES": "Earth Fair" }, "geometry": { "type": "Point", "coordinates": [ 35.45694, -15.36936 ] } },
{ "type": "Feature", "properties": { "TYPE": "Health Centre", "NAME": "Malembo", "DISTRICT": "Lilongwe", "ROAD_ACCES": "Earth Poor" }, "geometry": { "type": "Point", "coordinates": [ 33.402387258855768, -13.61989 ] } },
{ "type": "Feature", "properties": { "TYPE": "Health Centre", "NAME": "Malidade", "DISTRICT": "Mzimba", "ROAD_ACCES": "Earth Fair" }, "geometry": { "type": "Point", "coordinates": [ 33.5, -11.22889 ] } },
{ "type": "Feature", "properties": { "TYPE": "Health Centre", "NAME": "Malomo", "DISTRICT": "Ntchisi", "ROAD_ACCES": "Earth Fair" }, "geometry": { "type": "Point", "coordinates": [ 33.83939, -13.14914 ] } },
{ "type": "Feature", "properties": { "TYPE": "Dispensary", "NAME": "Malowa", "DISTRICT": "Nkhotakota", "ROAD_ACCES": "Earth Poor" }, "geometry": { "type": "Point", "coordinates": [ 34.25144, -13.18167 ] } },
{ "type": "Feature", "properties": { "TYPE": "District Hospital", "NAME": "Mangochi", "DISTRICT": "Mangochi", "ROAD_ACCES": "Tarmac" }, "geometry": { "type": "Point", "coordinates": [ 35.26481, -14.48197 ] } },
{ "type": "Feature", "properties": { "TYPE": "Health Centre", "NAME": "Manyamula", "DISTRICT": "Mzimba", "ROAD_ACCES": "Earth Fair" }, "geometry": { "type": "Point", "coordinates": [ 33.43944, -11.94 ] } },
{ "type": "Feature", "properties": { "TYPE": "Health Centre", "NAME": "Maperera", "DISTRICT": "Chikwawa", "ROAD_ACCES": "Gravel" }, "geometry": { "type": "Point", "coordinates": [ 34.91558, -16.10539 ] } },
{ "type": "Feature", "properties": { "TYPE": "Dispensary", "NAME": "Masasa", "DISTRICT": "Ntcheu", "ROAD_ACCES": "Tarmac" }, "geometry": { "type": "Point", "coordinates": [ 34.42244, -14.43339 ] } },
{ "type": "Feature", "properties": { "TYPE": "Health Centre", "NAME": "Masenjere", "DISTRICT": "Nsanje", "ROAD_ACCES": "Gravel" }, "geometry": { "type": "Point", "coordinates": [ 35.09678, -16.33731 ] } },
{ "type": "Feature", "properties": { "TYPE": "Health Centre", "NAME": "Matawale", "DISTRICT": "Zomba", "ROAD_ACCES": "Gravel" }, "geometry": { "type": "Point", "coordinates": [ 35.35947, -15.39044 ] } },
{ "type": "Feature", "properties": { "TYPE": "Health Centre", "NAME": "Mauwa", "DISTRICT": "Chiradzulu", "ROAD_ACCES": "Gravel" }, "geometry": { "type": "Point", "coordinates": [ 35.25014, -15.65283 ] } },
{ "type": "Feature", "properties": { "TYPE": "Dispensary", "NAME": "Mbabzi", "DISTRICT": "Lilongwe", "ROAD_ACCES": "Earth Poor" }, "geometry": { "type": "Point", "coordinates": [ 33.67092, -13.92783 ] } },
{ "type": "Feature", "properties": { "TYPE": "Health Centre", "NAME": "Mbalachanda", "DISTRICT": "Mzimba", "ROAD_ACCES": "Earth Fair" }, "geometry": { "type": "Point", "coordinates": [ 33.37119, -11.35761 ] } },
{ "type": "Feature", "properties": { "TYPE": "Health Centre", "NAME": "Mbang'ombe  11", "DISTRICT": "Lilongwe", "ROAD_ACCES": "Earth Fair" }, "geometry": { "type": "Point", "coordinates": [ 33.37925, -14.16958 ] } },
{ "type": "Feature", "properties": { "TYPE": "Health Centre", "NAME": "Mbenje", "DISTRICT": "Nsanje", "ROAD_ACCES": "Gravel" }, "geometry": { "type": "Point", "coordinates": [ 35.22086, -16.99481 ] } },
{ "type": "Feature", "properties": { "TYPE": "Health Centre", "NAME": "Mbera", "DISTRICT": "Balaka", "ROAD_ACCES": "Earth Fair" }, "geometry": { "type": "Point", "coordinates": [ 35.05369, -14.91064 ] } },
{ "type": "Feature", "properties": { "TYPE": "Health Centre", "NAME": "Mbingwa", "DISTRICT": "Dowa", "ROAD_ACCES": "Earth Fair" }, "geometry": { "type": "Point", "coordinates": [ 33.51494, -13.54417 ] } },
{ "type": "Feature", "properties": { "TYPE": "Dispensary", "NAME": "Mbonechela", "DISTRICT": "Machinga", "ROAD_ACCES": null }, "geometry": { "type": "Point", "coordinates": [ 35.47825, -14.88944 ] } },
{ "type": "Feature", "properties": { "TYPE": "Health Centre", "NAME": "Mbulumbuzi", "DISTRICT": "Chiradzulu", "ROAD_ACCES": "Tarmac" }, "geometry": { "type": "Point", "coordinates": [ 35.15686, -15.63875 ] } },
{ "type": "Feature", "properties": { "TYPE": "Health Centre", "NAME": "Mchacha", "DISTRICT": "Nsanje", "ROAD_ACCES": "Earth Fair" }, "geometry": { "type": "Point", "coordinates": [ 35.16, -16.49139 ] } },
{ "type": "Feature", "properties": { "TYPE": "District Hospital", "NAME": "Mchinji", "DISTRICT": "Mchinji", "ROAD_ACCES": "Tarmac" }, "geometry": { "type": "Point", "coordinates": [ 32.88739, -13.80267 ] } },
{ "type": "Feature", "properties": { "TYPE": "Health Centre", "NAME": "Mchoka", "DISTRICT": "Salima", "ROAD_ACCES": "Earth Poor" }, "geometry": { "type": "Point", "coordinates": [ 34.48986, -13.92633 ] } },
{ "type": "Feature", "properties": { "TYPE": "Health Centre", "NAME": "Mdeka", "DISTRICT": "Blantyre", "ROAD_ACCES": "Gravel" }, "geometry": { "type": "Point", "coordinates": [ 34.94272, -15.46778 ] } },
{ "type": "Feature", "properties": { "TYPE": "Rural Hospital", "NAME": "Mhuju", "DISTRICT": "Rumphi", "ROAD_ACCES": "Gravel Fair" }, "geometry": { "type": "Point", "coordinates": [ 33.9975, -10.86667 ] } },
{ "type": "Feature", "properties": { "TYPE": "Health Centre", "NAME": "Migowi", "DISTRICT": "Phalombe", "ROAD_ACCES": "Earth Fair" }, "geometry": { "type": "Point", "coordinates": [ 35.68544, -15.71944 ] } },
{ "type": "Feature", "properties": { "TYPE": "Health Centre", "NAME": "Mikundi", "DISTRICT": "Mchinji", "ROAD_ACCES": "Earth Fair" }, "geometry": { "type": "Point", "coordinates": [ 33.13831, -13.70792 ] } },
{ "type": "Feature", "properties": { "TYPE": "Health Centre", "NAME": "Milepa", "DISTRICT": "Chiradzulu", "ROAD_ACCES": "Gravel" }, "geometry": { "type": "Point", "coordinates": [ 35.31881, -15.68706 ] } },
{ "type": "Feature", "properties": { "TYPE": "Rural Hospital", "NAME": "Ming'ongo", "DISTRICT": "Lilongwe", "ROAD_ACCES": "Earth Fair" }, "geometry": { "type": "Point", "coordinates": [ 33.44833, -14.07503 ] } },
{ "type": "Feature", "properties": { "TYPE": "Health Centre", "NAME": "Misamvu", "DISTRICT": "Nsanje", "ROAD_ACCES": "Earth Fair" }, "geometry": { "type": "Point", "coordinates": [ 35.04744, -16.76281 ] } },
{ "type": "Feature", "properties": { "TYPE": "Health Centre", "NAME": "Misuku", "DISTRICT": "Chitipa", "ROAD_ACCES": "Earth Fair" }, "geometry": { "type": "Point", "coordinates": [ 33.52075, -9.67967 ] } },
{ "type": "Feature", "properties": { "TYPE": "Rural Hospital", "NAME": "Mitundu", "DISTRICT": "Lilongwe", "ROAD_ACCES": "Earth Fair" }, "geometry": { "type": "Point", "coordinates": [ 33.77444, -14.24825 ] } },
{ "type": "Feature", "properties": { "TYPE": "Dispensary", "NAME": "Mjini", "DISTRICT": "Dedza", "ROAD_ACCES": "Earth Poor" }, "geometry": { "type": "Point", "coordinates": [ 34.23883, -14.04406 ] } },
{ "type": "Feature", "properties": { "TYPE": "Health Centre", "NAME": "Mkanda", "DISTRICT": "Mchinji", "ROAD_ACCES": "Earth Fair" }, "geometry": { "type": "Point", "coordinates": [ 32.96092, -13.51456 ] } },
{ "type": "Feature", "properties": { "TYPE": "Health Centre", "NAME": "Mkango", "DISTRICT": "Nsanje", "ROAD_ACCES": "Gravel" }, "geometry": { "type": "Point", "coordinates": [ 35.27031, -16.73075 ] } },
{ "type": "Feature", "properties": { "TYPE": "Health Centre", "NAME": "Mkhota", "DISTRICT": "Kasungu", "ROAD_ACCES": "Earth Poor" }, "geometry": { "type": "Point", "coordinates": [ 33.34358, -13.56675 ] } },
{ "type": "Feature", "properties": { "TYPE": "Dispensary", "NAME": "Mkhuzi", "DISTRICT": "Ntchisi", "ROAD_ACCES": "Earth Fair" }, "geometry": { "type": "Point", "coordinates": [ 33.77672, -13.36644 ] } },
{ "type": "Feature", "properties": { "TYPE": "Health Centre", "NAME": "Mkhwayi", "DISTRICT": "Phalombe", "ROAD_ACCES": "Earth Poor" }, "geometry": { "type": "Point", "coordinates": [ 35.62778, -15.61444 ] } },
{ "type": "Feature", "properties": { "TYPE": "Health Centre", "NAME": "Mkoma", "DISTRICT": "Mzimba", "ROAD_ACCES": "Earth Poor" }, "geometry": { "type": "Point", "coordinates": [ 33.78253, -12.61236 ] } },
{ "type": "Feature", "properties": { "TYPE": "Health Centre", "NAME": "Mkumaniza", "DISTRICT": "Chikwawa", "ROAD_ACCES": "Gravel" }, "geometry": { "type": "Point", "coordinates": [ 34.7245, -16.47958 ] } },
{ "type": "Feature", "properties": { "TYPE": "Health Centre", "NAME": "Mlangeni", "DISTRICT": "Ntcheu", "ROAD_ACCES": "Tarmac" }, "geometry": { "type": "Point", "coordinates": [ 34.53681, -14.67653 ] } },
{ "type": "Feature", "properties": { "TYPE": "Dispensary", "NAME": "Mlangeni/Police", "DISTRICT": "Ntcheu", "ROAD_ACCES": "Tarmac" }, "geometry": { "type": "Point", "coordinates": [ 34.53325, -14.68292 ] } },
{ "type": "Feature", "properties": { "TYPE": "Health Centre", "NAME": "Mlolo", "DISTRICT": "Nsanje", "ROAD_ACCES": "Earth Poor" }, "geometry": { "type": "Point", "coordinates": [ 35.1525, -16.41972 ] } },
{ "type": "Feature", "properties": { "TYPE": "Dispensary", "NAME": "Mndinda", "DISTRICT": "Ntchisi", "ROAD_ACCES": "Earth Fair" }, "geometry": { "type": "Point", "coordinates": [ 34.05669, -13.24733 ] } },
{ "type": "Feature", "properties": { "TYPE": "Rural Hospital", "NAME": "Monkey bay", "DISTRICT": "Mangochi", "ROAD_ACCES": "Earth Fair" }, "geometry": { "type": "Point", "coordinates": [ 34.91097, -14.085 ] } },
{ "type": "Feature", "properties": { "TYPE": "Dispensary", "NAME": "Mpamantha", "DISTRICT": "Nkhotakota", "ROAD_ACCES": "Earth Fair" }, "geometry": { "type": "Point", "coordinates": [ 34.25222, -13.06931 ] } },
{ "type": "Feature", "properties": { "TYPE": "Health Centre", "NAME": "Mpamba", "DISTRICT": "Nkhata Bay", "ROAD_ACCES": "Tarmac" }, "geometry": { "type": "Point", "coordinates": [ 34.19744, -11.54681 ] } },
{ "type": "Feature", "properties": { "TYPE": "Health Centre", "NAME": "Mpasa", "DISTRICT": "Phalombe", "ROAD_ACCES": "Earth Fair" }, "geometry": { "type": "Point", "coordinates": [ 35.61139, -15.75783 ] } },
{ "type": "Feature", "properties": { "TYPE": "Health Centre", "NAME": "Mpata", "DISTRICT": "Karonga", "ROAD_ACCES": "Earth Bad" }, "geometry": { "type": "Point", "coordinates": [ 33.815, -9.96056 ] } },
{ "type": "Feature", "properties": { "TYPE": "Health Centre", "NAME": "Mpemba", "DISTRICT": "Blantyre", "ROAD_ACCES": "Gravel" }, "geometry": { "type": "Point", "coordinates": [ 34.95653, -15.87492 ] } },
{ "type": "Feature", "properties": { "TYPE": "Health Centre", "NAME": "Mphati", "DISTRICT": "Dedza", "ROAD_ACCES": "Earth Fair" }, "geometry": { "type": "Point", "coordinates": [ 34.07678, -14.45547 ] } },
{ "type": "Feature", "properties": { "TYPE": "Dispensary", "NAME": "Mphepozinai", "DISTRICT": "Ntcheu", "ROAD_ACCES": "Earth Fair" }, "geometry": { "type": "Point", "coordinates": [ 34.66083, -14.73583 ] } },
{ "type": "Feature", "properties": { "TYPE": "Health Centre", "NAME": "Mphompha", "DISTRICT": "Rumphi", "ROAD_ACCES": "Earth Fair" }, "geometry": { "type": "Point", "coordinates": [ 34.07294, -11.00606 ] } },
{ "type": "Feature", "properties": { "TYPE": "Rural Hospital", "NAME": "Mponela", "DISTRICT": "Dowa", "ROAD_ACCES": "Tarmac" }, "geometry": { "type": "Point", "coordinates": [ 33.73761, -13.53253 ] } },
{ "type": "Feature", "properties": { "TYPE": "Health Centre", "NAME": "Msakambewa", "DISTRICT": "Dowa", "ROAD_ACCES": "Earth Fair" }, "geometry": { "type": "Point", "coordinates": [ 33.89711, -13.55297 ] } },
{ "type": "Feature", "properties": { "TYPE": "Health Centre", "NAME": "Msenjere", "DISTRICT": "Nkhotakota", "ROAD_ACCES": "Tarmac" }, "geometry": { "type": "Point", "coordinates": [ 34.17064, -12.73261 ] } },
{ "type": "Feature", "properties": { "TYPE": "Health Centre", "NAME": "Msese", "DISTRICT": "Mzimba", "ROAD_ACCES": "Earth Poor" }, "geometry": { "type": "Point", "coordinates": [ 33.73994, -12.35947 ] } },
{ "type": "Feature", "properties": { "TYPE": "Health Centre", "NAME": "Mtakataka", "DISTRICT": "Dedza", "ROAD_ACCES": "Tarmac" }, "geometry": { "type": "Point", "coordinates": [ 34.51494, -14.2275 ] } },
{ "type": "Feature", "properties": { "TYPE": "Health Centre", "NAME": "Mtende", "DISTRICT": "Mzimba", "ROAD_ACCES": "Earth Fair" }, "geometry": { "type": "Point", "coordinates": [ 33.54881, -11.49736 ] } },
{ "type": "Feature", "properties": { "TYPE": "Health Centre", "NAME": "Mtenthera", "DISTRICT": "Lilongwe", "ROAD_ACCES": "Tarmac" }, "geometry": { "type": "Point", "coordinates": [ 34.0055, -14.10853 ] } },
{ "type": "Feature", "properties": { "TYPE": "Health Centre", "NAME": "Mtosa", "DISTRICT": "Nkhotakota", "ROAD_ACCES": "Earth Poor" }, "geometry": { "type": "Point", "coordinates": [ 34.27383, -13.43864 ] } },
{ "type": "Feature", "properties": { "TYPE": "Health Centre", "NAME": "Mtunthama", "DISTRICT": "Kasungu", "ROAD_ACCES": "Tarmac" }, "geometry": { "type": "Point", "coordinates": [ 33.68244, -13.03158 ] } },
{ "type": "Feature", "properties": { "TYPE": "Health Centre", "NAME": "Mtwalo", "DISTRICT": "Mzimba", "ROAD_ACCES": "Earth Fair" }, "geometry": { "type": "Point", "coordinates": [ 33.74594, -11.39675 ] } },
{ "type": "Feature", "properties": { "TYPE": "Dispensary", "NAME": "Mulangali", "DISTRICT": "Dedza", "ROAD_ACCES": "Earth Fair" }, "geometry": { "type": "Point", "coordinates": [ 34.27281, -14.41317 ] } },
{ "type": "Feature", "properties": { "TYPE": "District Hospital", "NAME": "Mulanje", "DISTRICT": "Mulanje", "ROAD_ACCES": "Tarmac" }, "geometry": { "type": "Point", "coordinates": [ 35.50758, -16.02564 ] } },
{ "type": "Feature", "properties": { "TYPE": "Health Centre", "NAME": "Mwansambo", "DISTRICT": "Nkhotakota", "ROAD_ACCES": null }, "geometry": { "type": "Point", "coordinates": [ 34.11778, -13.3025 ] } },
{ "type": "Feature", "properties": { "TYPE": "District Hospital", "NAME": "Mwanza", "DISTRICT": "Mwanza", "ROAD_ACCES": "Tarmac" }, "geometry": { "type": "Point", "coordinates": [ 34.51133, -15.59111 ] } },
{ "type": "Feature", "properties": { "TYPE": "Health Centre", "NAME": "Mwazisi", "DISTRICT": "Rumphi", "ROAD_ACCES": "Earth Fair" }, "geometry": { "type": "Point", "coordinates": [ 33.57889, -10.94389 ] } },
{ "type": "Feature", "properties": { "TYPE": "Health Centre", "NAME": "Mzandu", "DISTRICT": "Ntchisi", "ROAD_ACCES": "Earth Fair" }, "geometry": { "type": "Point", "coordinates": [ 34.02767, -13.48908 ] } },
{ "type": "Feature", "properties": { "TYPE": "Health Centre", "NAME": "Mzenga", "DISTRICT": "Nkhata Bay", "ROAD_ACCES": "Earth Fair" }, "geometry": { "type": "Point", "coordinates": [ 34.07731, -11.73236 ] } },
{ "type": "Feature", "properties": { "TYPE": "District Hospital", "NAME": "Mzimba", "DISTRICT": "Mzimba", "ROAD_ACCES": "Tarmac" }, "geometry": { "type": "Point", "coordinates": [ 33.58428, -11.89808 ] } },
{ "type": "Feature", "properties": { "TYPE": "Central Hospital", "NAME": "Mzuzu", "DISTRICT": "Mzimba", "ROAD_ACCES": "Tarmac Good" }, "geometry": { "type": "Point", "coordinates": [ 33.9955, -11.42786 ] } },
{ "type": "Feature", "properties": { "TYPE": "Health Centre", "NAME": "Mzuzu Urban", "DISTRICT": "Mzimba", "ROAD_ACCES": "Tarmac Good" }, "geometry": { "type": "Point", "coordinates": [ 34.015, -11.46139 ] } },
{ "type": "Feature", "properties": { "TYPE": "Health Centre", "NAME": "Namadzi", "DISTRICT": "Chiradzulu", "ROAD_ACCES": "Tarmac" }, "geometry": { "type": "Point", "coordinates": [ 35.18767, -15.54669 ] } },
{ "type": "Feature", "properties": { "TYPE": "Health Centre", "NAME": "Namanolo", "DISTRICT": "Balaka", "ROAD_ACCES": "Gravel" }, "geometry": { "type": "Point", "coordinates": [ 35.19014, -15.00086 ] } },
{ "type": "Feature", "properties": { "TYPE": "Health Centre", "NAME": "Namasalima", "DISTRICT": "Zomba", "ROAD_ACCES": "Gravel" }, "geometry": { "type": "Point", "coordinates": [ 35.48883, -15.23133 ] } },
{ "type": "Feature", "properties": { "TYPE": "Health Centre", "NAME": "Nambazo", "DISTRICT": "Phalombe", "ROAD_ACCES": "Earth Fair" }, "geometry": { "type": "Point", "coordinates": [ 35.81922, -15.55669 ] } },
{ "type": "Feature", "properties": { "TYPE": "Health Centre", "NAME": "Nambiti", "DISTRICT": "Phalombe", "ROAD_ACCES": "Earth Poor" }, "geometry": { "type": "Point", "coordinates": [ 35.76392, -15.80281 ] } },
{ "type": "Feature", "properties": { "TYPE": "Dispensary", "NAME": "Namikoko", "DISTRICT": "Blantyre", "ROAD_ACCES": "Gravel" }, "geometry": { "type": "Point", "coordinates": [ 35.07375, -15.48681 ] } },
{ "type": "Feature", "properties": { "TYPE": "Health Centre", "NAME": "Namitambo", "DISTRICT": "Chiradzulu", "ROAD_ACCES": "Gravel" }, "geometry": { "type": "Point", "coordinates": [ 35.27036, -15.84119 ] } },
{ "type": "Feature", "properties": { "TYPE": "Health Centre", "NAME": "Namphungo", "DISTRICT": "Mulanje", "ROAD_ACCES": "Earth Fair" }, "geometry": { "type": "Point", "coordinates": [ 35.34894, -15.80425 ] } },
{ "type": "Feature", "properties": { "TYPE": "Health Centre", "NAME": "Namwera", "DISTRICT": "Mangochi", "ROAD_ACCES": null }, "geometry": { "type": "Point", "coordinates": [ 35.50247, -14.36411 ] } },
{ "type": "Feature", "properties": { "TYPE": "Health Centre", "NAME": "Nangalamu", "DISTRICT": "Mangochi", "ROAD_ACCES": "Earth Fair" }, "geometry": { "type": "Point", "coordinates": [ 35.67311, -14.46806 ] } },
{ "type": "Feature", "properties": { "TYPE": "Health Centre", "NAME": "Nankumba", "DISTRICT": "Mangochi", "ROAD_ACCES": "Earth Poor" }, "geometry": { "type": "Point", "coordinates": [ 34.82372, -14.36544 ] } },
{ "type": "Feature", "properties": { "TYPE": "Health Centre", "NAME": "Naphimba", "DISTRICT": "Mulanje", "ROAD_ACCES": "Earth Poor" }, "geometry": { "type": "Point", "coordinates": [ 35.67875, -16.03363 ] } },
{ "type": "Feature", "properties": { "TYPE": "Health Centre", "NAME": "Nasawa/Chimwalira", "DISTRICT": "Zomba", "ROAD_ACCES": "Gravel" }, "geometry": { "type": "Point", "coordinates": [ 35.25956, -15.60231 ] } },
{ "type": "Feature", "properties": { "TYPE": "Health Centre", "NAME": "Nathenje", "DISTRICT": "Lilongwe", "ROAD_ACCES": "Earth Fair" }, "geometry": { "type": "Point", "coordinates": [ 33.90778, -14.08189 ] } },
{ "type": "Feature", "properties": { "TYPE": "Health Centre", "NAME": "Nayinunje", "DISTRICT": "Machinga", "ROAD_ACCES": "Tarmac" }, "geometry": { "type": "Point", "coordinates": [ 35.56517, -14.74047 ] } },
{ "type": "Feature", "properties": { "TYPE": "Health Centre", "NAME": "Nayuchi", "DISTRICT": "Machinga", "ROAD_ACCES": "Earth Fair" }, "geometry": { "type": "Point", "coordinates": [ 35.86714, -14.97569 ] } },
{ "type": "Feature", "properties": { "TYPE": "Health Centre", "NAME": "Ndakwela", "DISTRICT": "Chikwawa", "ROAD_ACCES": "Earth Fair" }, "geometry": { "type": "Point", "coordinates": [ 34.68886, -16.22361 ] } },
{ "type": "Feature", "properties": { "TYPE": "Health Centre", "NAME": "Ndamera", "DISTRICT": "Nsanje", "ROAD_ACCES": "Earth Fair" }, "geometry": { "type": "Point", "coordinates": [ 35.21894, -17.09575 ] } },
{ "type": "Feature", "properties": { "TYPE": "Health Centre", "NAME": "Ndaula", "DISTRICT": "Lilongwe", "ROAD_ACCES": "Earth Fair" }, "geometry": { "type": "Point", "coordinates": [ 33.50761, -14.13844 ] } },
{ "type": "Feature", "properties": { "TYPE": "Health Centre", "NAME": "Ndirande", "DISTRICT": "Blantyre", "ROAD_ACCES": "Tarmac" }, "geometry": { "type": "Point", "coordinates": [ 35.03975, -15.77833 ] } },
{ "type": "Feature", "properties": { "TYPE": "Health Centre", "NAME": "Ndunde", "DISTRICT": "Chiradzulu", "ROAD_ACCES": "Gravel" }, "geometry": { "type": "Point", "coordinates": [ 35.23344, -15.69636 ] } },
{ "type": "Feature", "properties": { "TYPE": "Rural Hospital", "NAME": "Neno", "DISTRICT": "Mwanza", "ROAD_ACCES": "Gravel" }, "geometry": { "type": "Point", "coordinates": [ 34.65367, -15.39506 ] } },
{ "type": "Feature", "properties": { "TYPE": "Dispensary", "NAME": "New state house", "DISTRICT": "Lilongwe", "ROAD_ACCES": "Tarmac" }, "geometry": { "type": "Point", "coordinates": [ 33.85086, -13.96031 ] } },
{ "type": "Feature", "properties": { "TYPE": "Rural Hospital", "NAME": "Ngabu", "DISTRICT": "Chikwawa", "ROAD_ACCES": "Gravel" }, "geometry": { "type": "Point", "coordinates": [ 34.89247, -16.45947 ] } },
{ "type": "Feature", "properties": { "TYPE": "Health Centre", "NAME": "Ngala", "DISTRICT": "Nkhotakota", "ROAD_ACCES": "Tarmac" }, "geometry": { "type": "Point", "coordinates": [ 34.06553, -12.36517 ] } },
{ "type": "Feature", "properties": { "TYPE": "Health Centre", "NAME": "Ngana", "DISTRICT": "Karonga", "ROAD_ACCES": "Earth Bad" }, "geometry": { "type": "Point", "coordinates": [ 33.69917, -9.62 ] } },
{ "type": "Feature", "properties": { "TYPE": "Health Centre", "NAME": "Ngokwe", "DISTRICT": "Machinga", "ROAD_ACCES": "Earth Fair" }, "geometry": { "type": "Point", "coordinates": [ 35.80175, -14.70683 ] } },
{ "type": "Feature", "properties": { "TYPE": "Health Centre", "NAME": "Ngwelelo", "DISTRICT": "Zomba", "ROAD_ACCES": "Gravel" }, "geometry": { "type": "Point", "coordinates": [ 35.42794, -15.66714 ] } },
{ "type": "Feature", "properties": { "TYPE": "Health Centre", "NAME": "Njuyu", "DISTRICT": "Mzimba", "ROAD_ACCES": "Earth Poor" }, "geometry": { "type": "Point", "coordinates": [ 33.6995, -11.52469 ] } },
{ "type": "Feature", "properties": { "TYPE": "Dispensary", "NAME": "Nkhande", "DISTRICT": "Nsanje", "ROAD_ACCES": "Gravel" }, "geometry": { "type": "Point", "coordinates": [ 35.15689, -17.11483 ] } },
{ "type": "Feature", "properties": { "TYPE": "District Hospital", "NAME": "Nkhata Bay", "DISTRICT": "Nkhata Bay", "ROAD_ACCES": "Tarmac" }, "geometry": { "type": "Point", "coordinates": [ 34.2955, -11.60223 ] } },
{ "type": "Feature", "properties": { "TYPE": "District Hospital", "NAME": "Nkhotakota", "DISTRICT": "Nkhotakota", "ROAD_ACCES": "Tarmac" }, "geometry": { "type": "Point", "coordinates": [ 34.29239, -12.92894 ] } },
{ "type": "Feature", "properties": { "TYPE": "Health Centre", "NAME": "Nkhulambe", "DISTRICT": "Phalombe", "ROAD_ACCES": "Earth Fair" }, "geometry": { "type": "Point", "coordinates": [ 35.75136, -15.85811 ] } },
{ "type": "Feature", "properties": { "TYPE": "Health Centre", "NAME": "Nkhunga", "DISTRICT": "Nkhotakota", "ROAD_ACCES": "Tarmac" }, "geometry": { "type": "Point", "coordinates": [ 34.10822, -12.48017 ] } },
{ "type": "Feature", "properties": { "TYPE": "Health Centre", "NAME": "Nkhuyukuyu", "DISTRICT": "Mzimba", "ROAD_ACCES": "Earth Poor" }, "geometry": { "type": "Point", "coordinates": [ 33.91447, -11.22208 ] } },
{ "type": "Feature", "properties": { "TYPE": "Health Centre", "NAME": "Nkhwazi", "DISTRICT": "Mchinji", "ROAD_ACCES": "Earth Fair" }, "geometry": { "type": "Point", "coordinates": [ 33.22669, -13.92339 ] } },
{ "type": "Feature", "properties": { "TYPE": "Dispensary", "NAME": "Nsabwe", "DISTRICT": "Thyolo", "ROAD_ACCES": "Earth Poor" }, "geometry": { "type": "Point", "coordinates": [ 35.2003, -16.33807 ] } },
{ "type": "Feature", "properties": { "TYPE": "District Hospital", "NAME": "Nsanje", "DISTRICT": "Nsanje", "ROAD_ACCES": "Gravel" }, "geometry": { "type": "Point", "coordinates": [ 35.25989, -16.91769 ] } },
{ "type": "Feature", "properties": { "TYPE": "Health Centre", "NAME": "Nsaru", "DISTRICT": "Lilongwe", "ROAD_ACCES": "Earth Fair" }, "geometry": { "type": "Point", "coordinates": [ 33.50444, -13.88531 ] } },
{ "type": "Feature", "properties": { "TYPE": "Health Centre", "NAME": "Nsiyaludzu", "DISTRICT": "Ntcheu", "ROAD_ACCES": "Tarmac" }, "geometry": { "type": "Point", "coordinates": [ 34.87422, -14.93672 ] } },
{ "type": "Feature", "properties": { "TYPE": "Health Centre", "NAME": "Ntaja", "DISTRICT": "Machinga", "ROAD_ACCES": "Tarmac" }, "geometry": { "type": "Point", "coordinates": [ 35.5295, -14.86814 ] } },
{ "type": "Feature", "properties": { "TYPE": "District Hospital", "NAME": "Ntcheu", "DISTRICT": "Ntcheu", "ROAD_ACCES": null }, "geometry": { "type": "Point", "coordinates": [ 34.63831, -14.81689 ] } },
{ "type": "Feature", "properties": { "TYPE": "District Hospital", "NAME": "Ntchisi", "DISTRICT": "Ntchisi", "ROAD_ACCES": "Earth Fair" }, "geometry": { "type": "Point", "coordinates": [ 33.91103, -13.36333 ] } },
{ "type": "Feature", "properties": { "TYPE": "Health Centre", "NAME": "Nthondo", "DISTRICT": "Lilongwe", "ROAD_ACCES": "Earth Fair" }, "geometry": { "type": "Point", "coordinates": [ 33.44989, -14.02869 ] } },
{ "type": "Feature", "properties": { "TYPE": "Dispensary", "NAME": "Nthondo", "DISTRICT": "Ntchisi", "ROAD_ACCES": "Earth Fair" }, "geometry": { "type": "Point", "coordinates": [ 34.02322, -13.24714 ] } },
{ "type": "Feature", "properties": { "TYPE": "Health Centre", "NAME": "Nthungwa", "DISTRICT": "Nkhata Bay", "ROAD_ACCES": "Earth Fair" }, "geometry": { "type": "Point", "coordinates": [ 33.80081, -11.66011 ] } },
{ "type": "Feature", "properties": { "TYPE": "Health Centre", "NAME": "Nyambi", "DISTRICT": "Machinga", "ROAD_ACCES": "Earth Fair" }, "geometry": { "type": "Point", "coordinates": [ 35.5725, -14.68994 ] } },
{ "type": "Feature", "properties": { "TYPE": "Health Centre", "NAME": "Nyamithuthu", "DISTRICT": "Nsanje", "ROAD_ACCES": "Gravel" }, "geometry": { "type": "Point", "coordinates": [ 35.19834, -16.68239 ] } },
{ "type": "Feature", "properties": { "TYPE": "Health Centre", "NAME": "Nyangu", "DISTRICT": "Mangochi", "ROAD_ACCES": "Earth Fair" }, "geometry": { "type": "Point", "coordinates": [ 35.18636, -14.06233 ] } },
{ "type": "Feature", "properties": { "TYPE": "Health Centre", "NAME": "Nyungwe", "DISTRICT": "Karonga", "ROAD_ACCES": "Tarmac" }, "geometry": { "type": "Point", "coordinates": [ 34.10833, -10.285 ] } },
{ "type": "Feature", "properties": { "TYPE": "Health Centre", "NAME": "Old Maula", "DISTRICT": "Nkhata Bay", "ROAD_ACCES": "Earth Good" }, "geometry": { "type": "Point", "coordinates": [ 34.23517, -11.73506 ] } },
{ "type": "Feature", "properties": { "TYPE": "Dispensary", "NAME": "Phalombe", "DISTRICT": "Phalombe", "ROAD_ACCES": "Earth Fair" }, "geometry": { "type": "Point", "coordinates": [ 35.64881, -15.80617 ] } },
{ "type": "Feature", "properties": { "TYPE": "Health Centre", "NAME": "Phimbi", "DISTRICT": "Balaka", "ROAD_ACCES": "Earth Fair" }, "geometry": { "type": "Point", "coordinates": [ 35.10711, -15.25092 ] } },
{ "type": "Feature", "properties": { "TYPE": "Health Centre", "NAME": "Phirilongwe", "DISTRICT": "Mangochi", "ROAD_ACCES": "Earth Fair" }, "geometry": { "type": "Point", "coordinates": [ 34.89847, -14.58831 ] } },
{ "type": "Feature", "properties": { "TYPE": "Health Centre", "NAME": "Phokera", "DISTRICT": "Nsanje", "ROAD_ACCES": "Gravel" }, "geometry": { "type": "Point", "coordinates": [ 35.16583, -16.62758 ] } },
{ "type": "Feature", "properties": { "TYPE": "Central Hospital", "NAME": "Queen Elizabeth", "DISTRICT": "Blantyre", "ROAD_ACCES": "Tarmac" }, "geometry": { "type": "Point", "coordinates": [ 35.02072, -15.80208 ] } },
{ "type": "Feature", "properties": { "TYPE": "District Hospital", "NAME": "Rumphi", "DISTRICT": "Rumphi", "ROAD_ACCES": "Earth Fair" }, "geometry": { "type": "Point", "coordinates": [ 33.85417, -11.01972 ] } },
{ "type": "Feature", "properties": { "TYPE": "District Hospital", "NAME": "Salima", "DISTRICT": "Salima", "ROAD_ACCES": "Tarmac" }, "geometry": { "type": "Point", "coordinates": [ 34.42183, -13.76178 ] } },
{ "type": "Feature", "properties": { "TYPE": "Health Centre", "NAME": "Sankhulani", "DISTRICT": "Nsanje", "ROAD_ACCES": "Gravel" }, "geometry": { "type": "Point", "coordinates": [ 35.25889, -16.45686 ] } },
{ "type": "Feature", "properties": { "TYPE": "Health Centre", "NAME": "Santhe", "DISTRICT": "Kasungu", "ROAD_ACCES": "Earth Fair" }, "geometry": { "type": "Point", "coordinates": [ 33.394, -13.46694 ] } },
{ "type": "Feature", "properties": { "TYPE": "Health Centre", "NAME": "Simulemba", "DISTRICT": "Kasungu", "ROAD_ACCES": "Earth Fair" }, "geometry": { "type": "Point", "coordinates": [ 33.67669, -12.74092 ] } },
{ "type": "Feature", "properties": { "TYPE": "Health Centre", "NAME": "Sorgin", "DISTRICT": "Nsanje", "ROAD_ACCES": "Tarmac" }, "geometry": { "type": "Point", "coordinates": [ 35.01444, -16.54139 ] } },
{ "type": "Feature", "properties": { "TYPE": "Health Centre", "NAME": "St Mary Rehabilitation", "DISTRICT": "Dowa", "ROAD_ACCES": "Tarmac" }, "geometry": { "type": "Point", "coordinates": [ 34.03739, -13.72553 ] } },
{ "type": "Feature", "properties": { "TYPE": "Dispensary", "NAME": "State house", "DISTRICT": "Zomba", "ROAD_ACCES": "Tarmac" }, "geometry": { "type": "Point", "coordinates": [ 35.31017, -15.38153 ] } },
{ "type": "Feature", "properties": { "TYPE": "Health Centre", "NAME": "Tchesamu", "DISTRICT": "Nkhata Bay", "ROAD_ACCES": "Earth Poor" }, "geometry": { "type": "Point", "coordinates": [ 34.01839, -11.85425 ] } },
{ "type": "Feature", "properties": { "TYPE": "Dispensary", "NAME": "Tembwe", "DISTRICT": "Mchinji", "ROAD_ACCES": "Earth Fair" }, "geometry": { "type": "Point", "coordinates": [ 33.06214, -13.90125 ] } },
{ "type": "Feature", "properties": { "TYPE": "Health Centre", "NAME": "Tengani", "DISTRICT": "Nsanje", "ROAD_ACCES": "Gravel" }, "geometry": { "type": "Point", "coordinates": [ 35.27033, -16.91753 ] } },
{ "type": "Feature", "properties": { "TYPE": "Health Centre", "NAME": "Thambani", "DISTRICT": "Mwanza", "ROAD_ACCES": "Gravel" }, "geometry": { "type": "Point", "coordinates": [ 34.39981, -15.72586 ] } },
{ "type": "Feature", "properties": { "TYPE": "Health Centre", "NAME": "Thekerani", "DISTRICT": "Thyolo", "ROAD_ACCES": "Earth Poor" }, "geometry": { "type": "Point", "coordinates": [ 35.20697, -16.32086 ] } },
{ "type": "Feature", "properties": { "TYPE": "Health Centre", "NAME": "Thondwe", "DISTRICT": "Zomba", "ROAD_ACCES": "Tarmac" }, "geometry": { "type": "Point", "coordinates": [ 35.23722, -15.48453 ] } },
{ "type": "Feature", "properties": { "TYPE": "Health Centre", "NAME": "Thonje", "DISTRICT": "Dowa", "ROAD_ACCES": "Earth Fair" }, "geometry": { "type": "Point", "coordinates": [ 34.23739, -13.72483 ] } },
{ "type": "Feature", "properties": { "TYPE": "Health Centre", "NAME": "Thuchila", "DISTRICT": "Mulanje", "ROAD_ACCES": "Earth Fair" }, "geometry": { "type": "Point", "coordinates": [ 35.36117, -15.91911 ] } },
{ "type": "Feature", "properties": { "TYPE": "Health Centre", "NAME": "Thunduwike", "DISTRICT": "Rumphi", "ROAD_ACCES": "Earth Poor" }, "geometry": { "type": "Point", "coordinates": [ 33.57611, -11.17647 ] } },
{ "type": "Feature", "properties": { "TYPE": "District Hospital", "NAME": "Thyolo", "DISTRICT": "Thyolo", "ROAD_ACCES": "Gravel" }, "geometry": { "type": "Point", "coordinates": [ 35.15197, -16.07002 ] } },
{ "type": "Feature", "properties": { "TYPE": "Dispensary", "NAME": "Tsoyo", "DISTRICT": "Dedza", "ROAD_ACCES": "Earth Fair" }, "geometry": { "type": "Point", "coordinates": [ 34.16122, -14.08108 ] } },
{ "type": "Feature", "properties": { "TYPE": "Health Centre", "NAME": "Tulonkhondo", "DISTRICT": "Mwanza", "ROAD_ACCES": "Gravel" }, "geometry": { "type": "Point", "coordinates": [ 34.52308, -15.74989 ] } },
{ "type": "Feature", "properties": { "TYPE": "Health Centre", "NAME": "Ukwe", "DISTRICT": "Lilongwe", "ROAD_ACCES": "Earth Fair" }, "geometry": { "type": "Point", "coordinates": [ 33.60156, -13.82592 ] } },
{ "type": "Feature", "properties": { "TYPE": "Health Centre", "NAME": "Usisya", "DISTRICT": "Nkhata Bay", "ROAD_ACCES": "Water Transport" }, "geometry": { "type": "Point", "coordinates": [ 34.20792, -11.23642 ] } },
{ "type": "Feature", "properties": { "TYPE": "Dispensary", "NAME": "Vibangalala", "DISTRICT": "Mzimba", "ROAD_ACCES": "Earth Poor" }, "geometry": { "type": "Point", "coordinates": [ 33.48617, -12.23436 ] } },
{ "type": "Feature", "properties": { "TYPE": "Health Centre", "NAME": "Wenya", "DISTRICT": "Chitipa", "ROAD_ACCES": "Earth Fair" }, "geometry": { "type": "Point", "coordinates": [ 33.56333, -10.11278 ] } },
{ "type": "Feature", "properties": { "TYPE": "Health Centre", "NAME": "Wiliro", "DISTRICT": "Karonga", "ROAD_ACCES": "Gravel Fair" }, "geometry": { "type": "Point", "coordinates": [ 33.61389, -9.89306 ] } },
{ "type": "Feature", "properties": { "TYPE": "Health Centre", "NAME": "Zingwangwa", "DISTRICT": "Blantyre", "ROAD_ACCES": "Gravel" }, "geometry": { "type": "Point", "coordinates": [ 34.99822, -15.81803 ] } },
{ "type": "Feature", "properties": { "TYPE": "Central Hospital", "NAME": "Zomba", "DISTRICT": "Zomba", "ROAD_ACCES": "Tarmac" }, "geometry": { "type": "Point", "coordinates": [ 35.31286, -15.39914 ] } },
{ "type": "Feature", "properties": { "TYPE": "Mental Hospital", "NAME": "Zomba Mental", "DISTRICT": "Zomba", "ROAD_ACCES": "Tarmac" }, "geometry": { "type": "Point", "coordinates": [ 35.30467, -15.39889 ] } },
{ "type": "Feature", "properties": { "TYPE": "Dispensary", "NAME": "Mazamba", "DISTRICT": "Nkhata Bay", "ROAD_ACCES": null }, "geometry": { "type": "Point", "coordinates": [ 33.556, -11.75789 ] } },
{ "type": "Feature", "properties": { "TYPE": "Health Centre", "NAME": "Endindeni", "DISTRICT": "Mzimba", "ROAD_ACCES": "Earth Poor" }, "geometry": { "type": "Point", "coordinates": [ 33.91639, -11.06361 ] } },
{ "type": "Feature", "properties": { "TYPE": "Health Centre", "NAME": "Bwengu", "DISTRICT": "Rumphi", "ROAD_ACCES": "Tarmac Good" }, "geometry": { "type": "Point", "coordinates": [ 34.17025, -10.59783 ] } },
{ "type": "Feature", "properties": { "TYPE": "Health Centre", "NAME": "Chitimba", "DISTRICT": "Rumphi", "ROAD_ACCES": "Earth Good" }, "geometry": { "type": "Point", "coordinates": [ 33.82306, -11.1975 ] } },
{ "type": "Feature", "properties": { "TYPE": "Health Centre", "NAME": "Ifumbo", "DISTRICT": "Rumphi", "ROAD_ACCES": "Tarmac / Earth Fair" }, "geometry": { "type": "Point", "coordinates": [ 33.40472, -9.60444 ] } },
{ "type": "Feature", "properties": { "TYPE": "Health Centre", "NAME": "Ifumbo", "DISTRICT": "Chitipa", "ROAD_ACCES": "Earth Fair" }, "geometry": { "type": "Point", "coordinates": [ 33.52222, -10.81278 ] } },
{ "type": "Feature", "properties": { "TYPE": "Rural Hospital", "NAME": "Katowo", "DISTRICT": "Rumphi", "ROAD_ACCES": "Earth Fair" }, "geometry": { "type": "Point", "coordinates": [ 33.98778, -10.06611 ] } },
{ "type": "Feature", "properties": { "TYPE": "Health Centre", "NAME": "Lupembe", "DISTRICT": "Karonga", "ROAD_ACCES": "Fair" }, "geometry": { "type": "Point", "coordinates": [ 33.95589, -10.99686 ] } },
{ "type": "Feature", "properties": { "TYPE": "Health Centre", "NAME": "Luzi", "DISTRICT": "Rumphi", "ROAD_ACCES": "Earth Fair" }, "geometry": { "type": "Point", "coordinates": [ 34.02714, -10.90778 ] } },
{ "type": "Feature", "properties": { "TYPE": "Health Centre", "NAME": "Nthalire", "DISTRICT": "Rumphi", "ROAD_ACCES": "Earth Good" }, "geometry": { "type": "Point", "coordinates": [ 33.64375, -10.34906 ] } },
{ "type": "Feature", "properties": { "TYPE": "Health Centre", "NAME": "Nthalire", "DISTRICT": "Chitipa", "ROAD_ACCES": "Earth Fair" }, "geometry": { "type": "Point", "coordinates": [ 35.08047, -15.82383 ] } },
{ "type": "Feature", "properties": { "TYPE": "Health Centre", "NAME": "South lunzu", "DISTRICT": "Blantyre", "ROAD_ACCES": "Gravel" }, "geometry": { "type": "Point", "coordinates": [ 35.61394, -16.04264 ] } },
{ "type": "Feature", "properties": { "TYPE": "Health Centre", "NAME": "Wimbe", "DISTRICT": "Kasungu", "ROAD_ACCES": "Earth Fair" }, "geometry": { "type": "Point", "coordinates": [ 35.49028, -15.90322 ] } },
{ "type": "Feature", "properties": { "TYPE": "Health Centre", "NAME": "Zoa", "DISTRICT": "Thyolo", "ROAD_ACCES": "Earth Fair" }, "geometry": { "type": "Point", "coordinates": [ 35.14751, -16.23239 ] } },
{ "type": "Feature", "properties": { "TYPE": "Health Centre", "NAME": "Bangwe", "DISTRICT": "Blantyre", "ROAD_ACCES": "Tarmac" }, "geometry": { "type": "Point", "coordinates": [ 35.38417, -14.42211 ] } },
{ "type": "Feature", "properties": { "TYPE": "Health Centre", "NAME": "Chikowa", "DISTRICT": "Mulanje", "ROAD_ACCES": "Earth Fair" }, "geometry": { "type": "Point", "coordinates": [ 34.871, -15.67142 ] } },
{ "type": "Feature", "properties": { "TYPE": "Health Centre", "NAME": "Chambe", "DISTRICT": "Mulanje", "ROAD_ACCES": "Earth Poor" }, "geometry": { "type": "Point", "coordinates": [ 35.34083, -16.15661 ] } },
{ "type": "Feature", "properties": { "TYPE": "Health Centre", "NAME": "Changata", "DISTRICT": "Thyolo", "ROAD_ACCES": "Earth Fair" }, "geometry": { "type": "Point", "coordinates": [ 35.60158, -14.37328 ] } },
{ "type": "Feature", "properties": { "TYPE": "Dispensary", "NAME": "Chikole", "DISTRICT": "Mangochi", "ROAD_ACCES": "Earth Fair" }, "geometry": { "type": "Point", "coordinates": [ 33.92892, -13.85708 ] } },
{ "type": "Feature", "properties": { "TYPE": "Health Centre", "NAME": "Chikowa", "DISTRICT": "Blantyre", "ROAD_ACCES": "Gravel" }, "geometry": { "type": "Point", "coordinates": [ 35.32317, -15.99733 ] } },
{ "type": "Feature", "properties": { "TYPE": "Health Centre", "NAME": "Chinyama", "DISTRICT": "Mulanje", "ROAD_ACCES": "Earth Fair" }, "geometry": { "type": "Point", "coordinates": [ 34.36017, -14.20039 ] } },
{ "type": "Feature", "properties": { "TYPE": "Health Centre", "NAME": "Chiponde", "DISTRICT": "Mangochi", "ROAD_ACCES": "Tarmac" }, "geometry": { "type": "Point", "coordinates": [ 33.60972, -12.59394 ] } },
{ "type": "Feature", "properties": { "TYPE": "Health Centre", "NAME": "Chiwamba", "DISTRICT": "Lilongwe", "ROAD_ACCES": "Earth Fair" }, "geometry": { "type": "Point", "coordinates": [ 34.37203, -15.80778 ] } },
{ "type": "Feature", "properties": { "TYPE": "Health Centre", "NAME": "Chonde", "DISTRICT": "Mulanje", "ROAD_ACCES": "Tarmac" }, "geometry": { "type": "Point", "coordinates": [ 33.63381, -11.45736 ] } },
{ "type": "Feature", "properties": { "TYPE": "Health Centre", "NAME": "Dzindevu", "DISTRICT": "Dedza", "ROAD_ACCES": "Earth Fair" }, "geometry": { "type": "Point", "coordinates": [ 33.95269, -14.31403 ] } },
{ "type": "Feature", "properties": { "TYPE": "Health Centre", "NAME": "Emfeni", "DISTRICT": "Mzimba", "ROAD_ACCES": "Earth Poor" }, "geometry": { "type": "Point", "coordinates": [ 33.33928, -13.29556 ] } },
{ "type": "Feature", "properties": { "TYPE": "Health Centre", "NAME": "Gaga", "DISTRICT": "Chikwawa", "ROAD_ACCES": "Gravel" }, "geometry": { "type": "Point", "coordinates": [ 35.27139, -16.09669 ] } },
{ "type": "Feature", "properties": { "TYPE": "Health Centre", "NAME": "Kafukule", "DISTRICT": "Mzimba", "ROAD_ACCES": "Earth Fair" }, "geometry": { "type": "Point", "coordinates": [ 35.18025, -14.63725 ] } },
{ "type": "Feature", "properties": { "TYPE": "Health Centre", "NAME": "Kanyezi", "DISTRICT": "Dedza", "ROAD_ACCES": null }, "geometry": { "type": "Point", "coordinates": [ 34.7735, -15.43692 ] } },
{ "type": "Feature", "properties": { "TYPE": "Health Centre", "NAME": "Kawamba", "DISTRICT": "Kasungu", "ROAD_ACCES": "Earth Fair" }, "geometry": { "type": "Point", "coordinates": [ 33.80486, -13.77081 ] } },
{ "type": "Feature", "properties": { "TYPE": "Health Centre", "NAME": "Khonjeni", "DISTRICT": "Thyolo", "ROAD_ACCES": "Earth Fair" }, "geometry": { "type": "Point", "coordinates": [ 33.67292, -11.38903 ] } },
{ "type": "Feature", "properties": { "TYPE": "Dispensary", "NAME": "Kukalanga", "DISTRICT": "Mangochi", "ROAD_ACCES": "Tarmac" }, "geometry": { "type": "Point", "coordinates": [ 33.71956, -12.11342 ] } },
{ "type": "Feature", "properties": { "TYPE": "Health Centre", "NAME": "Lisungwi", "DISTRICT": "Mwanza", "ROAD_ACCES": "Gravel" }, "geometry": { "type": "Point", "coordinates": [ 33.64131, -12.48828 ] } },
{ "type": "Feature", "properties": { "TYPE": "Health Centre", "NAME": "Lumbadzi", "DISTRICT": "Lilongwe", "ROAD_ACCES": "Tarmac" }, "geometry": { "type": "Point", "coordinates": [ 33.29456, -11.53894 ] } },
{ "type": "Feature", "properties": { "TYPE": "Health Centre", "NAME": "Luvwere", "DISTRICT": "Mzimba", "ROAD_ACCES": "Earth Road" }, "geometry": { "type": "Point", "coordinates": [ 34.11647, -14.40622 ] } },
{ "type": "Feature", "properties": { "TYPE": "Health Centre", "NAME": "Luwawa", "DISTRICT": "Mzimba", "ROAD_ACCES": "Earth Fair" }, "geometry": { "type": "Point", "coordinates": [ 33.97522, -14.01103 ] } },
{ "type": "Feature", "properties": { "TYPE": "Health Centre", "NAME": "Luwerezi", "DISTRICT": "Mzimba", "ROAD_ACCES": "Earth Poor" }, "geometry": { "type": "Point", "coordinates": [ 34.25294, -14.09714 ] } },
{ "type": "Feature", "properties": { "TYPE": "Health Centre", "NAME": "Madede", "DISTRICT": "Mzimba", "ROAD_ACCES": "Earth Fair" }, "geometry": { "type": "Point", "coordinates": [ 35.34628, -16.09281 ] } },
{ "type": "Feature", "properties": { "TYPE": "Health Centre", "NAME": "Maonde", "DISTRICT": "Dedza", "ROAD_ACCES": "Earth Fair" }, "geometry": { "type": "Point", "coordinates": [ 35.18363, -15.9014 ] } },
{ "type": "Feature", "properties": { "TYPE": "Health Centre", "NAME": "Matapila", "DISTRICT": "Lilongwe", "ROAD_ACCES": "Earth Fair" }, "geometry": { "type": "Point", "coordinates": [ 35.47839, -16.10239 ] } },
{ "type": "Feature", "properties": { "TYPE": "Health Centre", "NAME": "Mayani", "DISTRICT": "Dedza", "ROAD_ACCES": "Earth Fair" }, "geometry": { "type": "Point", "coordinates": [ 35.61244, -16.08569 ] } },
{ "type": "Feature", "properties": { "TYPE": "Health Centre", "NAME": "Mbiza", "DISTRICT": "Mulanje", "ROAD_ACCES": "Earth Fair" }, "geometry": { "type": "Point", "coordinates": [ 35.52531, -14.59456 ] } },
{ "type": "Feature", "properties": { "TYPE": "Health Centre", "NAME": "Mikolongwe", "DISTRICT": "Thyolo", "ROAD_ACCES": "Earth Fair" }, "geometry": { "type": "Point", "coordinates": [ 35.52481, -16.14389 ] } },
{ "type": "Feature", "properties": { "TYPE": "Health Centre", "NAME": "Milonde", "DISTRICT": "Mulanje", "ROAD_ACCES": "Earth Fair" }, "geometry": { "type": "Point", "coordinates": [ 33.61464, -11.28819 ] } },
{ "type": "Feature", "properties": { "TYPE": "Dispensary", "NAME": "Mimosa", "DISTRICT": "Mulanje", "ROAD_ACCES": "Earth Poor" }, "geometry": { "type": "Point", "coordinates": [ 35.51208, -15.76528 ] } },
{ "type": "Feature", "properties": { "TYPE": "Health Centre", "NAME": "Mkumba", "DISTRICT": "Mangochi", "ROAD_ACCES": "Tarmac" }, "geometry": { "type": "Point", "coordinates": [ 35.76197, -16.06225 ] } },
{ "type": "Feature", "properties": { "TYPE": "Health Centre", "NAME": "Mpala", "DISTRICT": "Mulanje", "ROAD_ACCES": "Earth Fair" }, "geometry": { "type": "Point", "coordinates": [ 33.56522, -11.61231 ] } },
{ "type": "Feature", "properties": { "TYPE": "Health Centre", "NAME": "Mpherembe", "DISTRICT": "Mzimba", "ROAD_ACCES": "Earth Fair" }, "geometry": { "type": "Point", "coordinates": [ 35.67939, -14.96492 ] } },
{ "type": "Feature", "properties": { "TYPE": "Health Centre", "NAME": "Mulomba", "DISTRICT": "Mulanje", "ROAD_ACCES": "Earth Poor" }, "geometry": { "type": "Point", "coordinates": [ 35.58681, -14.47836 ] } },
{ "type": "Feature", "properties": { "TYPE": "Health Centre", "NAME": "Muloza Heath centre", "DISTRICT": "Mulanje", "ROAD_ACCES": "Earth Fair" }, "geometry": { "type": "Point", "coordinates": [ 35.31022, -15.97067 ] } },
{ "type": "Feature", "properties": { "TYPE": "Health Centre", "NAME": "South Lunzu", "DISTRICT": "Mzimba", "ROAD_ACCES": "Earth Fair" }, "geometry": { "type": "Point", "coordinates": [ 35.05475, -15.72678 ] } },
{ "type": "Feature", "properties": { "TYPE": "Health Centre", "NAME": "Namanja", "DISTRICT": "Machinga", "ROAD_ACCES": "Earth Fair" }, "geometry": { "type": "Point", "coordinates": [ 33.68697, -12.99122 ] } },
{ "type": "Feature", "properties": { "TYPE": "Dispensary", "NAME": "Nancholi", "DISTRICT": "Mangochi", "ROAD_ACCES": "Tarmac" }, "geometry": { "type": "Point", "coordinates": [ 35.19973, -16.23769 ] } },
{ "type": "Feature", "properties": { "TYPE": "Health Centre", "NAME": "Nkalo", "DISTRICT": "Chiradzulu", "ROAD_ACCES": "Gravel" }, "geometry": { "type": "Point", "coordinates": [ 33.93425, -13.65744 ] } },
{ "type": "Feature", "properties": { "TYPE": "Clinic", "NAME": "Family Planning Association", "DISTRICT": "Dowa", "ROAD_ACCES": "Earth Fair" }, "geometry": { "type": "Point", "coordinates": [ 33.776, -13.99817 ] } },
{ "type": "Feature", "properties": { "TYPE": "Voluntary Counsellin", "NAME": "Macro Lilongwe", "DISTRICT": "Lilongwe", "ROAD_ACCES": null }, "geometry": { "type": "Point", "coordinates": [ 35.02036, -15.65117 ] } },
{ "type": "Feature", "properties": { "TYPE": "Voluntary Counsellin", "NAME": "Macro Blantyre", "DISTRICT": "Blantyre", "ROAD_ACCES": "Tarmac" }, "geometry": { "type": "Point", "coordinates": [ 34.01461, -11.46525 ] } },
{ "type": "Feature", "properties": { "TYPE": "Health Centre", "NAME": "Macro Mzuzu", "DISTRICT": "Mzimba", "ROAD_ACCES": "Tarmac" }, "geometry": { "type": "Point", "coordinates": [ 34.51142, -14.22589 ] } },
{ "type": "Feature", "properties": { "TYPE": "Health Centre", "NAME": "Mtakataka/ Police College", "DISTRICT": "Dedza", "ROAD_ACCES": "Earth Poor" }, "geometry": { "type": "Point", "coordinates": [ 34.02492, -11.46211 ] } },
{ "type": "Feature", "properties": { "TYPE": "Dispensary", "NAME": "Mzuzu Police", "DISTRICT": "Mzimba", "ROAD_ACCES": "Tarmac" }, "geometry": { "type": "Point", "coordinates": [ 33.24758, -14.00094 ] } },
{ "type": "Feature", "properties": { "TYPE": "Dispensary", "NAME": "Namizana", "DISTRICT": "Mchinji", "ROAD_ACCES": "Earth Fair" }, "geometry": { "type": "Point", "coordinates": [ 35.32706, -15.39083 ] } },
{ "type": "Feature", "properties": { "TYPE": "Dispensary", "NAME": "Police", "DISTRICT": "Zomba", "ROAD_ACCES": "Tarmac" }, "geometry": { "type": "Point", "coordinates": [ 33.78439, -13.92775 ] } },
{ "type": "Feature", "properties": { "TYPE": "Dispensary", "NAME": "Police (Area 30)", "DISTRICT": "Lilongwe", "ROAD_ACCES": "Tarmac" }, "geometry": { "type": "Point", "coordinates": [ 35.32417, -15.39506 ] } },
{ "type": "Feature", "properties": { "TYPE": "Dispensary", "NAME": "Zomba Prison", "DISTRICT": "Zomba", "ROAD_ACCES": "Tarmac" }, "geometry": { "type": "Point", "coordinates": [ 33.4455, -12.92356 ] } },
{ "type": "Feature", "properties": { "TYPE": "Dispensary", "NAME": "80 Block", "DISTRICT": "Kasungu", "ROAD_ACCES": "Earth Fair" }, "geometry": { "type": "Point", "coordinates": [ 35.19233, -14.54553 ] } },
{ "type": "Feature", "properties": { "TYPE": "Dispensary", "NAME": "Assalam", "DISTRICT": "Mangochi", "ROAD_ACCES": "Earth Fair" }, "geometry": { "type": "Point", "coordinates": [ 35.13047, -15.73978 ] } },
{ "type": "Feature", "properties": { "TYPE": "Health Centre", "NAME": "Bilal", "DISTRICT": "Chiradzulu", "ROAD_ACCES": "Tarmac" }, "geometry": { "type": "Point", "coordinates": [ 35.00297, -15.76569 ] } },
{ "type": "Feature", "properties": { "TYPE": "Clinic", "NAME": "Centre 3", "DISTRICT": "Blantyre", "ROAD_ACCES": "Tarmac" }, "geometry": { "type": "Point", "coordinates": [ 34.13025, -12.50303 ] } },
{ "type": "Feature", "properties": { "TYPE": "Clinic", "NAME": "Dwangwa Cane Grower Ltd", "DISTRICT": "Nkhotakota", "ROAD_ACCES": "Earth Fair" }, "geometry": { "type": "Point", "coordinates": [ 34.11911, -12.52114 ] } },
{ "type": "Feature", "properties": { "TYPE": "Clinic", "NAME": "Dwangwa Cane Grower Ltd", "DISTRICT": "Nkhotakota", "ROAD_ACCES": "Tarmac" }, "geometry": { "type": "Point", "coordinates": [ 33.6485, -10.95992 ] } },
{ "type": "Feature", "properties": { "TYPE": "Clinic", "NAME": "Eva Demaya Private", "DISTRICT": "Rumphi", "ROAD_ACCES": "Earth - Seasonal" }, "geometry": { "type": "Point", "coordinates": [ 34.75778, -15.895 ] } },
{ "type": "Feature", "properties": { "TYPE": "Clinic", "NAME": "Kapichira", "DISTRICT": "Chikwawa", "ROAD_ACCES": "Gravel" }, "geometry": { "type": "Point", "coordinates": [ 34.03889, -10.72583 ] } },
{ "type": "Feature", "properties": { "TYPE": "Clinic", "NAME": "KasaSA", "DISTRICT": "Rumphi", "ROAD_ACCES": "Gravel Fair" }, "geometry": { "type": "Point", "coordinates": [ 34.1325, -12.53764 ] } },
{ "type": "Feature", "properties": { "TYPE": "Clinic", "NAME": "Kasasa", "DISTRICT": "Nkhotakota", "ROAD_ACCES": "Gravel" }, "geometry": { "type": "Point", "coordinates": [ 33.31314, -13.79906 ] } },
{ "type": "Feature", "properties": { "TYPE": "Health Centre", "NAME": "Khasu", "DISTRICT": "Lilongwe", "ROAD_ACCES": "Earth Fair" }, "geometry": { "type": "Point", "coordinates": [ 33.30036, -13.14381 ] } },
{ "type": "Feature", "properties": { "TYPE": "Health Centre", "NAME": "Linyangwa", "DISTRICT": "Kasungu", "ROAD_ACCES": "Earth Fair" }, "geometry": { "type": "Point", "coordinates": [ 35.49217, -14.99317 ] } },
{ "type": "Feature", "properties": { "TYPE": "Health Centre", "NAME": "Madalitso", "DISTRICT": "Machinga", "ROAD_ACCES": "Tarmac" }, "geometry": { "type": "Point", "coordinates": [ 33.92436, -9.94011 ] } },
{ "type": "Feature", "properties": { "TYPE": "Clinic", "NAME": "Maneno Private", "DISTRICT": "Karonga", "ROAD_ACCES": "Tarmac" }, "geometry": { "type": "Point", "coordinates": [ 35.15047, -14.33292 ] } },
{ "type": "Feature", "properties": { "TYPE": "Health Centre", "NAME": "Matiki", "DISTRICT": "Mangochi", "ROAD_ACCES": "Earth Fair" }, "geometry": { "type": "Point", "coordinates": [ 34.15453, -12.49908 ] } },
{ "type": "Feature", "properties": { "TYPE": "Health Centre", "NAME": "Matiki", "DISTRICT": "Nkhotakota", "ROAD_ACCES": "Gravel" }, "geometry": { "type": "Point", "coordinates": [ 34.02772, -11.46175 ] } },
{ "type": "Feature", "properties": { "TYPE": "Clinic", "NAME": "Nkula", "DISTRICT": "Mzimba", "ROAD_ACCES": "Tarmac" }, "geometry": { "type": "Point", "coordinates": [ 34.82539, -15.52222 ] } },
{ "type": "Feature", "properties": { "TYPE": "Clinic", "NAME": "Nyamvu", "DISTRICT": "Mwanza", "ROAD_ACCES": "Gravel" }, "geometry": { "type": "Point", "coordinates": [ 34.15264, -12.47914 ] } },
{ "type": "Feature", "properties": { "TYPE": "Clinic", "NAME": "Nyamvuu", "DISTRICT": "Nkhotakota", "ROAD_ACCES": "Gravel" }, "geometry": { "type": "Point", "coordinates": [ 35.06529, -15.81572 ] } },
{ "type": "Feature", "properties": { "TYPE": "Clinic", "NAME": "Railways CEAR", "DISTRICT": "Blantyre", "ROAD_ACCES": "Tarmac" }, "geometry": { "type": "Point", "coordinates": [ 33.75606, -11.91656 ] } },
{ "type": "Feature", "properties": { "TYPE": "Dispensary", "NAME": "Raiply", "DISTRICT": "Mzimba", "ROAD_ACCES": "Tarmac" }, "geometry": { "type": "Point", "coordinates": [ 33.79278, -14.01906 ] } },
{ "type": "Feature", "properties": { "TYPE": "Clinic", "NAME": "SOS Medical Centre", "DISTRICT": "Lilongwe", "ROAD_ACCES": "Earth Fair" }, "geometry": { "type": "Point", "coordinates": [ 34.84722, -16.25 ] } },
{ "type": "Feature", "properties": { "TYPE": "Clinic", "NAME": "Sucoma\\Illovo", "DISTRICT": "Chikwawa", "ROAD_ACCES": "Tarmac" }, "geometry": { "type": "Point", "coordinates": [ 33.39075, -12.68267 ] } },
{ "type": "Feature", "properties": { "TYPE": "Clinic", "NAME": "Ukasi", "DISTRICT": "Kasungu", "ROAD_ACCES": "Earth Poor" }, "geometry": { "type": "Point", "coordinates": [ 34.16325, -12.52911 ] } },
{ "type": "Feature", "properties": { "TYPE": "Clinic", "NAME": "Bunda", "DISTRICT": "Nkhotakota", "ROAD_ACCES": "Earth Fair" }, "geometry": { "type": "Point", "coordinates": [ 33.77542, -14.18039 ] } },
{ "type": "Feature", "properties": { "TYPE": "Clinic", "NAME": "Bunda", "DISTRICT": "Lilongwe", "ROAD_ACCES": "Tarmac" }, "geometry": { "type": "Point", "coordinates": [ 33.89917, -11.69056 ] } },
{ "type": "Feature", "properties": { "TYPE": null, "NAME": "Partners in Health", "DISTRICT": "Lilongwe", "ROAD_ACCES": null }, "geometry": { "type": "Point", "coordinates": [ 33.787877056189132, -14.023317593319463 ] } },
{ "type": "Feature", "properties": { "TYPE": "Cinical Research", "NAME": "MW Liverpool Welcome Trust", "DISTRICT": "Blantyre", "ROAD_ACCES": null }, "geometry": { "type": "Point", "coordinates": [ 35.021987992531429, -15.804587312912101 ] } },
{ "type": "Feature", "properties": { "TYPE": "Medical College", "NAME": "College of Medicine", "DISTRICT": "Blantyre", "ROAD_ACCES": null }, "geometry": { "type": "Point", "coordinates": [ 35.015616562773047, -15.801707333307027 ] } },
{ "type": "Feature", "properties": { "TYPE": "Medical Centre", "NAME": "Wezi", "DISTRICT": "Rumphi", "ROAD_ACCES": null }, "geometry": { "type": "Point", "coordinates": [ 34.013736072623807, -11.46559463645664 ] } },
{ "type": "Feature", "properties": { "TYPE": "Military Facility", "NAME": "Kamuzu Barracks", "DISTRICT": "Lilongwe", "ROAD_ACCES": null }, "geometry": { "type": "Point", "coordinates": [ 33.818368898604191, -13.978145790029808 ] } },
{ "type": "Feature", "properties": { "TYPE": "Health Centre", "NAME": "Dream", "DISTRICT": "Blantyre", "ROAD_ACCES": null }, "geometry": { "type": "Point", "coordinates": [ 35.025738500816878, -15.81265078903095 ] } }
]
}
